Position,Title,Link,Place ID,Address,City,State,Phone,Rating,Reviews,Latitude,Longitude,Estado
1,J & O Celulares Serviços e Acessórios,,ChIJ-zaDdGtNxwcRORa7Yq7bl5g,"R. Viçosa Maia, 1665 - Siqueira, Fortaleza - CE, 60732-190",N/A,N/A,,5,2,-3.8120881,-38.627942999999995,ceará
2,Loja David Cell,https://www.instagram.com/lojadavidcell/,ChIJMSTslhxNxwcRxotn2UW-b0c,"R. Adalberto Malveira - Siqueira II, Fortaleza - CE, 60732-290",N/A,N/A,+55 85 98931-4111,5,2,-3.8195335999999998,-38.6237703,ceará
3,DihCell,,ChIJo1IJ_-JNxwcROxa8wVehTK4,"Av. A, 130B - Parque Jari, Maracanaú - CE, 61916-030",N/A,N/A,+55 85 98890-4738,5,1,-3.8250534,-38.6318134,ceará
4,ELETROCELL,,ChIJsSu_hBNNxwcR5REOg1ufv6w,"R. Brilhante, 325 - Siqueira, Fortaleza - CE, 60732-465",N/A,N/A,+55 85 98793-6003,5,26,-3.8080705999999998,-38.626177299999995,ceará
5,Top Presentes e Acessórios para Celular,,ChIJzWaBbkdNxwcRiJUNQRSNt2E,"Av. Eng. Luiz Montenegro, 732 - Loja 2 - Siqueira II, Fortaleza - CE, 60732-270",N/A,N/A,+55 85 99107-9689,,,-3.8133331999999998,-38.6199983,ceará
6,WR Acessórios e Celulares BRINDES,,ChIJfamRveNMxwcR7GTBbjfp8sc,"R. João Gentil, 2881 - Bom Jardim, Fortaleza - CE, 60540-050",N/A,N/A,+55 85 98744-8450,3,1,-3.7912939999999997,-38.625197899999996,ceará
7,"Dione Cell assistência técnica em celulares,venda de acessórios.",,ChIJa1NeVHdNxwcRp-dGsolQ8Pc,"Av. Gen. Osório de Paiva, 7640 - Siqueira, Fortaleza - CE, 60732-142",N/A,N/A,+55 85 98594-9390,5,20,-3.8189301999999996,-38.6161473,ceará
8,Primo Celulares | Assistência técnica e Acessórios para Celulares | Troca de Vidro,,ChIJw2si4ldMxwcRcMjOflF4Dok,"Av. Oscar Araripe, 2215 - Granja Lisboa, Fortaleza - CE, 60540-444",N/A,N/A,+55 85 3497-1814,4.4,286,-3.7877229999999997,-38.610800999999995,ceará
9,GRILO CELL ATUALIZAÇÕES EM SOFTWARE REPARAÇÃO EM PLACAS DE SMARTPHONE OK,https://www.instagram.com/p/CDYuKO0nc8I/?igshid=5mkxyf38e4ni,ChIJ5XjiFb5NxwcRNLQpRTjgtRc,"Rua 114 - Conj. Esperança, Fortaleza - CE, 60763-630",N/A,N/A,+55 85 98920-4519,5,12,-3.8113498999999997,-38.5939729,ceará
10,Mfcell acessórios,,ChIJJTdDR3VNxwcRiEqxxTEfK1w,"R. Santo Anastácio - Siqueira, Fortaleza - CE, 60732-800",N/A,N/A,+55 85 99409-6539,,,-3.8116906,-38.6071849,ceará
11,Jefferson CelulaR,,ChIJvQxMUu5TxwcRirVgqptg_Ok,"Rua Heleno De Freitas, Beco Da Poeira, 1861 - Alto Alegre II, Maracanaú - CE, 61921-380",N/A,N/A,+55 85 98857-5419,,,-3.8285337999999998,-38.6138616,ceará
12,Loja Importadão Cell,,ChIJ3wFUrLdNxwcRFTlNsS3-WSE,"Rua Sargento João Pinheiro, 1817 - Granja Lisboa, Fortaleza - CE, 60540-513",N/A,N/A,,5,1,-3.7884737,-38.6242053,ceará
13,Nilson celular,https://instagram.com/nilsoncelular?igshid=YmMyMTA2M2Y=,ChIJTe-rw1NMxwcRAganDdJMpZ0,"R. Cel. João Correia, 1396 - Granja Lisboa, Fortaleza - CE, 60543-322",N/A,N/A,+55 85 98954-7770,4.7,25,-3.7918328,-38.6043604,ceará
14,D&E celulares,,ChIJt7QxcNdNxwcRAIOVR0PFl6Q,"R. Mandu, 1102 - A - Siqueira, Fortaleza - CE, 60732-130",N/A,N/A,+55 85 99868-3882,,,-3.8137830999999998,-38.6221919,ceará
15,Rcell - Manutenção & Variedades,,ChIJm5tjUfRNxwcRl7i9FV-ihJM,"R. Martins Carvalho, 4351 - Granja Lisboa, Fortaleza - CE, 60540-182",N/A,N/A,+55 85 98611-5842,4.7,29,-3.7886525,-38.6276576,ceará
16,Icases imports _ Acessórios para celular,,ChIJWbnQ82tNxwcRgKUgpfAIUdI,"Rua Sargento João Pinheiro, 1455 - Granja Lisboa, Fortaleza - CE, 60540-513",N/A,N/A,+55 85 98793-6322,5,1,-3.7858459,-38.623577399999995,ceará
17,K & k recargas de celular,,ChIJ_UyGBapTxwcRmTGqyesdc-g,"Av. Dr. Mendel Steinbruch - Monguba, Fortaleza - CE, 60766-655",N/A,N/A,+55 85 98675-7609,5,2,-3.8345054999999997,-38.5822218,ceará
18,Primo Celulares 2,https://www.facebook.com/PrimoCell-1262040037165423/?ref=br_rs,ChIJCej5mHxMxwcRbU2wTBPwgm4,"Av. Ministro Albuquerque Lima, 711 - Conj. Ceará I, Fortaleza - CE, 60533-697",N/A,N/A,+55 85 98939-6988,5,1,-3.7683948999999997,-38.6062546,ceará
19,TECHMAIS - Acessórios E Assistência Técnica,https://linktr.ee/techmais__,ChIJ2ylSnxBNxwcROCjfbNuIL-w,"Av. Oscar Araripe, 1828 - Bom Jardim, Fortaleza - CE, 60543-452",N/A,N/A,+55 85 98633-4480,4.6,25,-3.7884346,-38.6074495,ceará
20,JR Celulares Assistência técnica & Acessórios,,ChIJBZMrEf5NxwcR8FnYUplLKa8,"Av. Oscar Araripe, 2242 - Granja Lisboa, Fortaleza - CE, 60540-444",N/A,N/A,+55 85 99215-7761,2.7,15,-3.7872907999999996,-38.61111,ceará
1,D'TUDO CELULAR,,ChIJGYYSAwBLxwcRI94pkWKXsDM,"Av. Lineu Machado, 419 - Jóquei Clube, Fortaleza - CE, 60520-101",N/A,N/A,,,,-3.7643024,-38.5748622,ceará
2,JV Cell Importados,,ChIJdTQpBFdNxwcRwu0UG0BcUc8,"R. Martins Carvalho, 620 - Bom Jardim, Fortaleza - CE, 60543-345",N/A,N/A,+55 85 98783-1205,5,1,-3.7962637,-38.6007464,ceará
3,Casa do Celular - Jóquei,http://casadocelular.com.br/,ChIJ0xL6AR1NxwcRRUgYHDHeqs0,"Av. Lineu Machado, 419 - 1056 - Jóquei Clube, Fortaleza - CE, 60520-102",N/A,N/A,+55 85 99813-0658,2.4,59,-3.7639278,-38.575395,ceará
4,Duda Acessórios,,ChIJkZtboepNxwcRGC96Ead32y4,"Rua Sargento João Pinheiro, 1764 - Granja Lisboa, Fortaleza - CE, 60540-513",N/A,N/A,+55 85 98773-3692,4.9,12,-3.7877022,-38.624274199999995,ceará
5,"RAMONCELL - Assistência Técnica em reparo de Celulares, Smartphones, Iphones e Android",https://www.instagram.com/ramoncell7/,ChIJ_3GNW91PxwcRMPU6AP6yiyA,"R. E, 185 - Canindezinho, Fortaleza - CE, 60810-670 - Canindezinho, Fortaleza - CE, 60734-050",N/A,N/A,+55 85 98653-4210,5,66,-3.8166496,-38.603013,ceará
6,Casa do Celular - Parangaba,http://www.casadocelular.com.br/,ChIJK8SHVotPxwcRWVzpYO0pNZA,"Rua Germano Franck, 300 - Parangaba, Fortaleza - CE, 60740-020",N/A,N/A,+55 85 98145-1823,2.3,47,-3.7756133999999997,-38.5620343,ceará
7,Celular,,ChIJfbrlaBVMxwcRv6SuOUKDduM,"Bonsucesso, Fortaleza - CE, 60545-350",N/A,N/A,,,,-3.7793067999999996,-38.5883542,ceará
8,Mk Cell acessórios para celular,https://www.instagram.com/mkcell58?igsh=a2F0enhkaDJmeW41,ChIJyQ4pBwBNxwcR5uU2ROSCMEc,"R. Cônego de Castro, 7166 - Vila Peri, Fortaleza - CE, 60730-190",N/A,N/A,+55 85 98937-3586,5,4,-3.8172664,-38.600963199999995,ceará
9,Casa Do Celular - Maracanaú,http://www.casadocelular.com.br/,ChIJ96ntcatTxwcRaUX6cMtYPoc,"AV. Senador - Av. Carlos Jereissati, 100 - Loja 223 - Jereissati II, Maracanaú - CE, 61900-010",N/A,N/A,+55 85 98517-9081,2.2,59,-3.8804258,-38.6220944,ceará
10,MOZAR CELULARES,,ChIJB9xV4UBNxwcRgXYLbdr2bVQ,"R. Maria Júlia, 1313 - Siqueira, Fortaleza - CE, 60545-045",N/A,N/A,+55 85 98640-1622,3.4,5,-3.7960933999999997,-38.6007822,ceará
11,XBF Celular Fortaleza Jóquei,,ChIJtegLjDZNxwcRCk6oK0-8K4w,"Av. Lineu Machado, 419 - Jóquei Clube, Fortaleza - CE, 60502-102",N/A,N/A,+55 85 99734-8742,4,27,-3.7647340999999996,-38.5744554,ceará
12,"Tok Cell: Conserto de Celular, Android, iPhone, Conjunto Ceará",https://link.meulink.bio/tok-cell,ChIJl3PQA9xNxwcR8bz0nri46Pw,"Av. G, 338 - Conj. Ceará, Fortaleza - CE, 60533-650",N/A,N/A,+55 85 99431-4428,4.6,54,-3.7727925,-38.611882099999995,ceará
13,"Regis, Servicos De Recarga E Celular Em Geral",,ChIJeaE9bbVLxwcR8NrkzizLBic,"R. Maria José Teixeira, 765 - Quintino Cunha, Fortaleza - CE, 60351-230",N/A,N/A,+55 85 3081-7006,4.4,8,-3.7322699,-38.591276,ceará
14,Ney Cell,,ChIJb94tLHtMxwcRS-8uGR5ecxw,"Av. Ministro Albuquerque Lima, 1011 - Conj. Ceará, Fortaleza - CE, 60533-590",N/A,N/A,+55 85 98854-8460,4.4,52,-3.7706812,-38.6036842,ceará
15,Loja do celular,,ChIJRYF9X5FNxwcRKWntb915Hb8,"Rua Sousa Carvalho, 407 - Bonsucesso, Fortaleza - CE, 60541-646",N/A,N/A,+55 85 98609-5257,5,11,-3.7840035999999997,-38.587697299999995,ceará
16,Smartcell assistência técnica especializada,https://instagram.com/smartcell085?igshid=ZmRlMzRkMDU=,ChIJZfJIe1FNxwcR4odcii7Z-Qc,"Av. Contôrno Norte, n°1257 - Conj. Esperança, Fortaleza - CE, 60736-730",N/A,N/A,+55 85 99636-0896,4.8,16,-3.8131643,-38.588531599999996,ceará
17,RN Celular & Acessórios,,ChIJu2AVGxpMxwcR_s8BnPbxOmM,"R. Júlio Braga, 918 - Jóquei Clube, Fortaleza - CE, 60520-130",N/A,N/A,+55 85 98560-0655,4.2,22,-3.7757669999999997,-38.5792329,ceará
18,Casa do Celular - RioMar Kennedy,http://www.casadocelular.com.br/,ChIJV-K2T2pJxwcR_2e1_20ATDc,"Av. Srg. Hermínio Sampaio, 3100 - Pres. Kennedy, Fortaleza - CE, 60355-512",N/A,N/A,+55 85 99153-3212,3.7,43,-3.7264085,-38.566385499999996,ceará
19,WM Celulares,http://www.instagram.com/wmcell,ChIJV6G24zRMxwcRNACOeXdaAH8,"R. Costa Freire, 1920 - Parque São José, Fortaleza - CE, 60730-135",N/A,N/A,+55 85 98804-9060,4.1,19,-3.7949424,-38.5873298,ceará
20,XBF Celular,,ChIJRyRxpNVTxwcR2EctY5JmLok,"Av. Antônio Soares Coutinho, 20b - Jereissati St. D, Maracanaú - CE, 61901-082",N/A,N/A,+55 85 99203-1951,4.3,6,-3.8795818,-38.6209051,ceará
1,Loja Rogerio Cell,,ChIJGZDhfuxNxwcRs-brSHl3Kgo,"Av. D, 250 - Conj. Esperança, Fortaleza - CE, 67763-470",N/A,N/A,,4.7,19,-3.8165917,-38.587218799999995,ceará
2,Charles Celulares e Acessórios,,ChIJgYPFFTazwAcRf6syfR78H-w,"Av. C, 41 - LOJA 02 - Nova Metrópole (Jurema), Caucaia - CE, 61658-070",N/A,N/A,+55 85 98755-6219,5,3,-3.7698766999999997,-38.656097599999995,ceará
3,Thiago Gold Cell - Assistência Especializada iOS e Android,https://thiagogoldcell.my.canva.site/,ChIJ05DQhVlNxwcRhVNa1nlqC6s,"Av. Contôrno Norte, 1544 - Novo Mondubim, Fortaleza - CE, 60763-730",N/A,N/A,+55 85 99627-5026,4.8,55,-3.8112314,-38.5897388,ceará
4,DL Cell - assistência técnica de celular e acessórios,,ChIJiWMlJeRNxwcRMjLWR3I6eZY,"R. André Rebouças, 184 - Bonsucesso, Fortaleza - CE, 60545-350",N/A,N/A,+55 85 98212-3013,5,267,-3.7749034,-38.5900822,ceará
5,Mastter Celulares,https://instagram.com/masttercelulares,ChIJQc7UDeJTxwcR219p3vGQa48,"Rua Paulo Batista dos Santos, 829 - Pajuçara, Maracanaú - CE, 61932-160",N/A,N/A,+55 85 99424-8271,5,13,-3.8607394,-38.580646699999996,ceará
6,Ericcell Celulares,https://www.facebook.com/Ericell-944508228914501/,ChIJK7UACztJxwcRKubkUG0KyqI,"Rua Desembargador Félix Cândido, 830 - Jóquei, Fortaleza - CE, 60520-355",N/A,N/A,+55 85 99974-4444,3.5,11,-3.7722439,-38.5792329,ceará
7,Vip Cell celulares e acessórios,,ChIJqURKNaVNxwcRqCaJU9xsL-Q,"dentro do supermercado center box - R. Cônego de Castro - Vila Peri, Fortaleza - CE, 60730-190",N/A,N/A,+55 85 98890-7186,5,1,-3.8000531,-38.588214,ceará
8,MARIA ISIS ACESSÓRIOS PARA CELULAR,,ChIJ6_V2BUStwAcRl-tMozvjF8k,"R. Duzentos e Dois, 858 - Luzardo Viana, Maracanaú - CE, 61912-045",N/A,N/A,+55 85 98939-8011,5,4,-3.8599957999999996,-38.654604299999995,ceará
9,S2 Celular e variedades,,ChIJnaJUAfdRxwcRixVfJ8tdsJk,"R. E, 8 - Conj. Ceará I, Fortaleza - CE, 60533-635",N/A,N/A,,5,1,-3.8314587999999996,-38.5499886,ceará
10,Maxtech celulares,,ChIJEbNRx6BNxwcRXYK383yNVP4,"Av. G, 75 - Conj. Esperança, Fortaleza - CE, 60763-490",N/A,N/A,+55 85 98681-9649,,,-3.815044,-38.5877869,ceará
11,iConsertCe,,ChIJ9_vULBFNxwcRekBmALvqDoE,"R. Alfredo Mamede, 534 - Mondubim, Fortaleza - CE, 60763-806",N/A,N/A,+55 85 98690-4470,4.7,26,-3.8099526999999997,-38.5817998,ceará
12,Maria Celular,,ChIJRaOC16VOxwcRULQT-xERl-E,"Parangaba, Fortaleza - CE, 60740-101",N/A,N/A,,,,-3.7746136999999997,-38.5635918,ceará
13,XBF CELULAR,,ChIJE9B2VL9JxwcRz6tiSO-Aizw,"Av. Bezerra de Menezes, 2450 - Pres. Kennedy, Fortaleza - CE, 60325-002",N/A,N/A,+55 85 99855-8230,4.5,64,-3.7350578999999997,-38.5660305,ceará
14,Hl. Celulares,,ChIJ8xDzlPdLxwcRveSJuVWoIXg,"Av. Senador Fernandes Távora, 912 - Jóquei Clube, Fortaleza - CE, 60510-111",N/A,N/A,+55 30825014,,,-3.7628700999999998,-38.580653999999996,ceará
15,Arfetech - Assistência Técnica de Celular e Acessórios,,ChIJ6yMssodTxwcR01CC7W9cvRA,"Av. Edson Magalhães, 890B - Mondubim, Maracanaú - CE, 61925-315",N/A,N/A,+55 85 99259-4029,5,9,-3.8380601,-38.5916335,ceará
16,Sensei acessories,https://instabio.cc/senseiacessories,ChIJfW69VvZLxwcRrCnmJ9GFdQs,"Av. Lineu Machado, 288 - Jóquei Clube, Fortaleza - CE, 60520-102",N/A,N/A,+55 85 98873-8848,4.9,119,-3.7629664999999997,-38.575490599999995,ceará
17,Prinspi Cell - Assistência técnica celular,,ChIJjdWAOU1LxwcRLYnWDgevdjA,"Av. São Vicente de Paula, 800 - Araturi, Caucaia - CE, 61655-000",N/A,N/A,+55 85 98757-8787,5,1,-3.7702668,-38.6327913,ceará
18,Mar-Cell celulares e acessórios,https://www.instagram.com/marcellcelulareseacessorios/,ChIJJ4P5VHJTxwcRzsUYpdXI4es,"Av 5 número 663, Av. Carlos Jereissati, 1 - lj03, Maracanaú - CE, 61900-630",N/A,N/A,+55 85 3371-2774,4.5,47,-3.8786066999999997,-38.6206782,ceará
19,SmartPro Celulares,http://smartprocelulares.com.br/,ChIJq8HqgDxVxwcREUiRC0GWqN4,"R. 19, 631 - Conj - Novo Maracanaú, Maracanaú - CE, 61905-620",N/A,N/A,+55 85 98523-5098,4.7,59,-3.8682589999999997,-38.6214978,ceará
20,"Altech Cell - Assistência Técnica Xiaomi, Samsung, Motorola, iphone, apple em Fortaleza","https://api.whatsapp.com/send?phone=5585988682264&text=Ol%C3%A1,%20Vim%20pelo%20Google%20gostaria%20de%20um%20atendimento%20especializado",ChIJXZEXPjVMxwcR2e2rjm3J4co,"R. Antônio Costa Mendes, 1499 - Parque São José, Fortaleza - CE, 60730-265",N/A,N/A,+55 85 98868-2264,4.7,225,-3.7951992,-38.5885204,ceará
1,Ncase Tudo Para Seu Celular,,ChIJrcEJFDhKxwcRtq1GxPvC_qA,"Jardim Guanabara, Fortaleza - CE, 60346-352",N/A,N/A,+55 85 98621-1407,4.9,8,-3.7222165,-38.5890596,ceará
2,Casa do Celular - Shopping Benfica,http://www.casadocelular.com.br/,ChIJ95C7y99JxwcRUgi-4xaLd-U,"R. Carapinima, 2200 - Benfica, Fortaleza - CE, 60015-290",N/A,N/A,+55 85 98684-6103,2,15,-3.739102,-38.540175999999995,ceará
3,Aj Celular & Informatica,,ChIJj11AeqZOxwcRBfGT7Ved2N4,"Av. Carlos Amora, 56 - Parangaba, Fortaleza - CE, 60740-101",N/A,N/A,+55 85 99294-6297,5,3,-3.7745819,-38.564206399999996,ceará
4,RB Celular,,ChIJ2ybH5mJLxwcRu9FlZywpFJo,"Rua José Mendonça, 777 - Genibaú, Fortaleza - CE, 60534-090",N/A,N/A,+55 85 98135-6520,4.6,5,-3.7563427999999996,-38.6019752,ceará
5,FortalCell Celulares,,ChIJcUopvpFJxwcRsYTGRWKhE04,"R. Raul Uchôa, 451 - Bom Futuro, Fortaleza - CE, 60416-510",N/A,N/A,+55 85 99971-6570,4.4,50,-3.7595324,-38.546923299999996,ceará
6,"Linard PHONES - Venda de Iphone, Xiaomi, Acessórios de Celular - Assistência Técnica - Parangaba - Jóquei Clube - Fortaleza",http://linardphonesfortalezace.blogspot.com/,ChIJNcb4ARNNxwcReXIanR8Rt6o,"Rua Gomes Brasil, R. Cândido Holanda, 475 - Loja 02 - Parangaba, Fortaleza - CE, 60720-150",N/A,N/A,+55 85 98618-8210,5,16,-3.7718401999999998,-38.5695645,ceará
7,Regis Celular,,ChIJz2jI-kFKxwcR5h_wMki-xCo,"Av. Mozart Pinheiro de Lucena, 1417 - Vila Velha, Fortaleza - CE, 60347-445",N/A,N/A,,,,-3.7150923,-38.5946557,ceará
8,GT celulares (peças e serviços),,ChIJ7e0JfkFKxwcRYS2DS0ec1-o,"Av. Mozart Pinheiro de Lucena, 1643 - Vila Velha, Fortaleza - CE, 60347-440",N/A,N/A,+55 85 3284-2275,4.4,73,-3.7170286,-38.595215499999995,ceará
9,Casa Do Celular Caucaia,https://casadocelular.com.br/,ChIJF9ps_NG0wAcRcC_0yEFG1MQ,"Rua Coronel Correia, 2022 - Centro, Caucaia - CE, 61600-004",N/A,N/A,+55 85 3011-6551,2.9,83,-3.7353113999999996,-38.658722999999995,ceará
10,KS Comércio e Serv de Celulares,,ChIJYURyqHxMxwcRM91rhMRTmcA,"Av. Ministro Albuquerque Lima, 848 - Conj. Ceará, Fortaleza - CE, 60533-690",N/A,N/A,,,,-3.7707488999999996,-38.6053494,ceará
11,conserta smartphone,,ChIJc8cyTSRNxwcRrjmF_GCdvB8,"R. José Gáspar, 77 - João XXIII, Fortaleza - CE, 60720-250",N/A,N/A,+55 85 98729-1988,2.1,7,-3.7731317,-38.5878124,ceará
12,"Rodrigo Inforcell Assistencia Tecnica Especializada em Celulares,Tablets,Computadores e Notebooks",https://www.instagram.com/rodrigoinforcell/?hl=pt-br,ChIJ_2ovBjJMxwcRdxrWPqNCkrk,"R. Emílio Conde, 569 - Manuel Sátiro, Fortaleza - CE, 60713-070",N/A,N/A,+55 85 98602-6659,5,3,-3.79288,-38.579648999999996,ceará
13,Oficina do Celular,,ChIJV3YUYeRLxwcRFBe0xGVV76o,"Av. Senador Fernandes Távora, 942 - Jóquei Clube, Fortaleza - CE, 60510-111",N/A,N/A,+55 85 98422-0134,,,-3.7625873999999997,-38.5811493,ceará
14,Amorim Celulares,,ChIJBQheUYhLxwcRwCcDYOrhonc,"Rua Tenente Queiroz, 130 - Antônio Bezerra, Fortaleza - CE, 60360-170",N/A,N/A,+55 85 98796-7559,5,12,-3.7445625999999996,-38.587233999999995,ceará
15,Casa Do Celular,http://casadocelular.site/,ChIJWXnWkDVJxwcR3XMw4CKBkvY,"Av. Professor Gomes de Matos, 1207 - Montese, Fortaleza - CE, 60420-431",N/A,N/A,+55 85 98418-1010,1.4,5,-3.7631235,-38.5470766,ceará
16,Henrique Celulares,,ChIJD1S31r5OxwcREHQ5mfTkkKg,"R. Cônego Lima Sucupira, 1680 - Serrinha, Fortaleza - CE, 60741-255",N/A,N/A,+55 85 98835-7057,4.8,10,-3.7782247,-38.5504592,ceará
17,Matheus imports Acessórios para Celular,https://www.instagram.com/matheusimportsstore?igshid=YzVkODRmOTdmMw==,ChIJ7y1NYwhTxwcR5DC7efDiCQE,"Av. Contôrno Sul, 25 - Industrial, Maracanaú - CE, 61925-210",N/A,N/A,,4.8,6,-3.8418593,-38.585227599999996,ceará
18,Celular Outlet Fortaleza,http://www.xbfcelular.com.br/,ChIJl7cRFdpJxwcR9JjPTNZXQD0,"Av. Bezerra de Menezes, 1250 - sala 710 - São Gerardo, Fortaleza - CE, 60325-005",N/A,N/A,+55 85 99921-0204,4.8,274,-3.7334785,-38.5560196,ceará
19,Casa Do Celular,http://casadocelular.site/,ChIJq4lE8X5JxwcRp0Lnv9K1AIU,"NORTH SHOPPING FORTALEZA - Av. Bezerra de Menezes, 2450 - São Gerardo, Fortaleza - CE, 60325-002",N/A,N/A,+55 85 98418-1010,,,-3.7350578999999997,-38.5660305,ceará
20,"AtendTudo | Assistência Técnica em Celulares, Tabletes, Computadores e Notebooks",https://destaklocalmkt.my.canva.site/atendtudo,ChIJBT5V2ddNxwcRhgIyerpGnUI,"R. Benjamim Brasil, 437A - Jardim Cearense, Fortaleza - CE, 60780-711",N/A,N/A,+55 85 98818-2662,4.8,78,-3.8039886999999997,-38.569324099999996,ceará
1,Tech Solutions - Celulares e Computadores,http://wa.me/5585997049554,ChIJ4aazOX9MxwcRV8eIhWz4qD0,"Av. F, 335A - Conj. Ceará, Fortaleza - CE, 60533-641",N/A,N/A,+55 85 99704-9554,5,49,-3.7638274,-38.6065469,ceará
2,"Sua Case - Assistência técnica, Capas Personalizadas, (Acessórios para Celular, informática, games), Eletrônicos e Variedades",https://instagram.com/lojasuacase,ChIJi2VHCbCzwAcRVYyQ2yf4s4g,"Av. D, N° 108 - Nova Metrópole, Caucaia - CE, 61658-080",N/A,N/A,+55 85 99143-5443,5,18,-3.7675718999999996,-38.6564076,ceará
3,Inforcell técnico de informática e celular,https://www.instagram.com/infor_cell_/,ChIJWc0dSLNOxwcR7q9iwHcYXYA,"R. 1004, 116 - Conj. Ceará, Fortaleza - CE, 60532-620",N/A,N/A,+55 85 98600-0787,4.8,8,-3.7728397,-38.6183054,ceará
4,Alan celular,,ChIJ9_yXFEtNxwcRStxR3ro1RLQ,"R. Boa Vista, 791 - João XXIII, Fortaleza - CE, 60525-555",N/A,N/A,,5,6,-3.768458,-38.5873035,ceará
5,Casa do Celular - Via Sul,http://www.casadocelular.com.br/,ChIJb7Eu-AlFxwcR98NI1TGv0LU,"Av. Washington Soares, 4335 - Lagoa Sapiranga (Coité), Fortaleza - CE, 60833-005",N/A,N/A,+55 85 98592-1601,2.4,31,-3.7946001999999996,-38.479570599999995,ceará
6,M&V CELULARES By: Márcio Uchoa,https://instagram.com/mev_celulares?igshid=MzRlODBiNWFlZA==,ChIJe6L79TROxwcROnu7N7_iETw,"R. Oito, 330 - Passaré, Fortaleza - CE, 60862-190",N/A,N/A,+55 85 99781-1348,4.9,38,-3.8183116,-38.529629799999995,ceará
7,Oficina do Celular,http://fb.com/oficinadocelular,ChIJ9fSvpD1TxwcRv80MNmB27wY,"R. Belém, 261 - Piratininga, Maracanaú - CE, 61905-210",N/A,N/A,+55 85 99229-8127,4,3,-3.8712036,-38.6266757,ceará
8,Moura Cell - Tudo para seu celular com o menor preço!!!,,ChIJ2Y3L6PdJxwcR_XbjTGG99V0,"Rua Tipógrafo Sales, 316 - Parquelândia, Fortaleza - CE, 60450-125",N/A,N/A,+55 85 99811-1990,5,4,-3.7385572999999996,-38.564698899999996,ceará
9,Phone Cell,,ChIJtTwXFu5OxwcRr5mtpU9DXoc,"esquina a - Rua caramuru, Av. Dr. Silas Munguba, 280 - Lj 01 - Serrinha, Fortaleza - CE, 60742-175",N/A,N/A,+55 85 3295-9446,4,90,-3.7896826,-38.54155,ceará
10,Iphone Cell,,ChIJIbjSSG1OxwcRIFOFw6a1Bic,"R. Vereadora Zélia Correia de Souza, 835 - Mondubim, Fortaleza - CE, 60761-515",N/A,N/A,+55 85 98890-8810,5,149,-3.8133315999999997,-38.5576594,ceará
11,Carlim Celular,,ChIJU-AapLKzwAcRbsKUdFUmmyA,"Av. C, 1 - apto 12B - Nova Metrópole, Caucaia - CE, 61658-070",N/A,N/A,+55 85 98808-4040,,,-3.7682946,-38.6568938,ceará
12,Léo iPhones Assistência Técnica de Celulares,https://instagram.com/leoiphones.ce?igshid=MzRlODBiNWFlZA==,ChIJ72fbCHJNxwcRwNVTWYMnJfM,"Rua Dr. João Amora, 649 - LOJA A - Manuel Sátiro, Fortaleza - CE, 60713-300",N/A,N/A,+55 85 99738-2243,5,8,-3.8001296,-38.5794347,ceará
13,XBF Celular Via Sul,https://linkr.bio/Xbfcelular,ChIJmbPwk_1FxwcRZxNFVsUZF1k,"Av. Washington Soares, 4335 - Lagoa Sapiranga (Coité), Fortaleza - CE, 60833-005",N/A,N/A,+55 85 99955-1609,4.7,21,-3.7946074999999997,-38.4795714,ceará
14,Mobcell Cases - Acessórios para Smartphones e Tablets,,ChIJoVlO67xOxwcR7Bl7X1v1gus,"A - R. Padre Carlos Quixadá, 112 - Parangaba, Fortaleza - CE, 60740-540",N/A,N/A,+55 85 99740-6321,5,4,-3.7787507999999996,-38.5568358,ceará
15,Rk Celulares & Variedades,,ChIJ_6iEYBFTxwcR2rauygmMm1o,"Av. Marginal Nordeste, 200a - Conj. Jereissati 3, Pacatuba - CE, 61803-000",N/A,N/A,+55 85 98747-3074,4,1,-3.8910405,-38.6098334,ceará
16,4G assiste manutenção de celular e tablet,,ChIJv5EP9WtFxwcRRNsaSWMECpA,"R. Bill Cartaxo, 290 - Lagoa Sapiranga (Coité), Fortaleza - CE, 60833-185",N/A,N/A,+55 85 98639-5426,,,-3.7909127999999996,-38.4745402,ceará
17,Rometec Celular,,ChIJQ6nc0LROxwcRXJWIZJBGZb4,"R. Alberto Magno, s/n - Montese, Fortaleza - CE, 60425-000",N/A,N/A,+55 85 98826-9167,4.1,40,-3.7659640999999997,-38.551066999999996,ceará
18,arthur celulares,,ChIJnXgtPf1NxwcR1rCTvrXaDiI,"Av. Maria Gomes de Sá, 830 - Mondubim, Fortaleza - CE, 60765-173",N/A,N/A,+55 85 99703-8073,,,-3.8272298,-38.578414599999995,ceará
19,Americanas,https://www.americanas.com.br/lojas-proximas/33014556000196/1130?ordenacao=topSelling&utm_medium=meunegocio&utm_source=google&utm_campaign=marca:acom;midia:meunegocio;formato:00;subformato:00;idcampanha:pacotelocal&epar=mn_00_00_go_pacotelocal,ChIJHXK5nZZMxwcRD5SR2QSi5Qo,"Av. São Vicente de Paula, 101 - Araturi, Caucaia - CE, 61655-000",N/A,N/A,,4.2,492,-3.7737781999999997,-38.628215,ceará
20,OnPhone - Assistência técnica e acessórios para celulares COM 1 ANO DE GARANTIA!,,ChIJN9_CB1JJxwcRYHJlgHkC9AM,"Rua Apólo, 28 - Damas (Pátio, BOX 3 e 4 - Damas, Fortaleza - CE, 60426-055",N/A,N/A,+55 85 99148-2141,4.9,145,-3.7546956,-38.5518344,ceará
1,S.A. Celulares,,ChIJ--wTe35JxwcR62ApYXnF_lY,"Av. Bezerra de Menezes, 2506 - Farias Brito, Fortaleza - CE, 60325-005",N/A,N/A,+55 85 3235-5154,4.6,7,-3.7550067,-38.556011399999996,ceará
2,Cesar Cell o Rei do Celular,,ChIJW18eajFLxwcR5SjmALmJT-8,"R. Humberto Martins de Castro, 140 - Parque Soledade, Caucaia - CE, 61603-045",N/A,N/A,+55 85 98599-3832,5,1,-3.7388974999999998,-38.646983,ceará
3,Skull Phone Assistência Técnica Especializada em celulares e tablet multimarcas,https://linktr.ee/skullphone,ChIJG9N1RmxTxwcRPBd5u-Tkf74,"Av. VII, 427 - Jereissati I, Maracanaú - CE, 61900-540",N/A,N/A,+55 85 99745-4845,4.5,26,-3.8771001,-38.610741,ceará
4,"Powercell Assistência Tecnica em Celular, Tablet.",,ChIJZXRgcfhTxwcRnn8b0UHLXdM,"Av: Antônio Soares Coutinho, 128 - Jereissati II, Maracanaú - CE, 61901-082",N/A,N/A,+55 85 98524-5900,5,18,-3.8807234,-38.6213851,ceará
5,JB,,ChIJ4_AlsMxOxwcRdwG65_h0o4M,"R. Teodorico Barroso, 500 - Montese, Fortaleza - CE, 60420-120",N/A,N/A,+55 85 98795-3079,4,21,-3.7664090999999997,-38.5421611,ceará
6,Aquicell Celulares,,ChIJL1G3gCFPxwcRJtAh9TQZ1sM,"R. Santa Rita das Causas Impossíveis, 651A - Passaré, Fortaleza - CE, 60744-315",N/A,N/A,+55 85 99168-8367,4,1,-3.8019672,-38.5335338,ceará
7,Loja Conceito Acessórios - Celular,,ChIJ9zVoRjdPxwcRQ8HOsowOSeY,"R. Júlio Verne, 325 - Itaoca, Fortaleza - CE, 60740-232",N/A,N/A,+55 85 98674-6130,5,2,-3.7755741,-38.552649699999996,ceará
8,RCCELL,https://instagram.com/rccellfortal?igshid=ZmZhODViOGI=,ChIJw6xC6CVLxwcRJm36EiTqoiI,"R. Rio Araguaia, 860 - Jardim Iracema, Fortaleza - CE, 60340-000",N/A,N/A,+55 85 99172-1588,4,4,-3.7240446,-38.5820594,ceará
9,Mixcell assistência técnica e acessórios para celulares,https://www.instagram.com/mixcellstore/,ChIJz2MCjbZLxwcRlePJIKiKuoQ,"Av. Major Assis, 3089 - Vila Velha, Fortaleza - CE, 60345-631",N/A,N/A,+55 85 98965-7159,5,1,-3.7188836999999997,-38.6061816,ceará
10,Magazine Luiza,https://lojas.magazineluiza.com.br/filiais/742?utm_source=google&utm_medium=maps&utm_campaign=gmb,ChIJD-a98HVJxwcRT5PD5e5Alqw,"Av. Lineu Machado, 450 - Jóquei Clube, Fortaleza - CE, 60520-102",N/A,N/A,+55 85 98848-8427,4.3,2144,-3.7637283,-38.5752866,ceará
11,Celulares Fortaleza,https://www.parceiromagalu.com.br/magazineupofertas,ChIJk0a1BlNJxwcRczFcPoHSIUY,"Av. Bezerra de Menezes, 2514 - Pres. Kennedy, Fortaleza - CE, 60325-002",N/A,N/A,+55 85 99956-8249,1,4,-3.7359169,-38.5670992,ceará
12,EletroAC,,ChIJB74RyWRJxwcRM5ZvtiIFpYM,"Av. Jovita Feitosa, 2830 - Parquelândia, Fortaleza - CE, 60455-411",N/A,N/A,+55 85 98778-9240,3.9,12,-3.7410984,-38.563119,ceará
13,Clínica do Celular,https://www.instagram.com/clinicadocelular01/,ChIJm8Im3qFTxwcRLo6YVZ18zrw,"Av. Luiz Pereira Lima, 525 - Luzardo Viana, Maracanaú - CE, 61910-105",N/A,N/A,+55 85 98845-9483,4,5,-3.8573926,-38.6455955,ceará
14,J.E CELULAR,,ChIJd-fcdypQxwcRdyhAKolpT0Q,"R. 212, 250 - Jangurussu, Fortaleza - CE, 60866-250",N/A,N/A,+55 85 98611-9453,5,3,-3.8320361999999997,-38.5236494,ceará
15,RV cell assistência técnica,,ChIJqb73PvdNxwcRSkIN54Hw2Po,"R. Franciscano, 309 - Bom Jardim, Fortaleza - CE, 60731-538",N/A,N/A,+55 85 98885-0982,1.7,6,-3.8012406,-38.602135,ceará
16,Ag Cell Celulares,,ChIJVVZvc3VTxwcRI_7mzj7HDCg,"Esquina com Rua 36, Av. VII, 20 D - Jereissati I, Maracanaú - CE, 61900-540",N/A,N/A,+55 85 3014-5938,,,-3.8780927999999997,-38.6126308,ceará
17,ZION CELULARES E ACESSÓRIOS,https://l.instagram.com/?u=https://bit.ly/Lojazionoficial?fbclid=PAAaZwQE6TSCg6usWHVjYmJw4i04GCQS2YVMX-FSHjsxSwCAYUXTXEHUaxsUk&e=AT1lFt4WZdafi8u0PdUjip0i6vXF_X6W1VEUvnEbaFb8EzOJTZBHRFtyHUVPf__5_NW--40VjBHU6RAArDiGtLP-DENq0l_qHEp4sA,ChIJD6gbyaS1wAcR26Buvj7TJDM,"Av. Juaci Sampaio Pontes, N° 2265 - Centro, Caucaia - CE, 61602-650",N/A,N/A,+55 85 98536-4874,3.8,20,-3.7347998999999996,-38.6577698,ceará
18,DLcellcases,,ChIJZ6016xRJxwcRKlPE9--0ofQ,"R. José Sombra, 279 - Parque Araxá, Fortaleza - CE, 60450-410",N/A,N/A,+55 85 99844-6960,5,2,-3.7344022999999997,-38.546969499999996,ceará
19,Caltec Vendas e Assistencia de Informatica celulares e tv,https://www.caltecinformatica.com.br/,ChIJ8bVfmypMxwcRUQiH02vsS1g,"Av. Godofredo Maciel, 2315 - Maraponga, Fortaleza - CE, 60710-683",N/A,N/A,+55 85 3051-2676,4.3,172,-3.7956578,-38.569382399999995,ceará
20,Rb Cell Assistência Técnica Em Celulares,,ChIJFRCr_ERKxwcRO_MeTnT-TqE,"R. Trinta e Um (Cj. Polar, 1710B - Vila Velha, Fortaleza - CE, 60348-400",N/A,N/A,,5,1,-3.7202226,-38.5985541,ceará
2,"Fortal Service | Manutenção e Conserto de Celulares, Tablets, Iphones e Ipads em Fortaleza",https://fortalservice.com.br/,ChIJKe2cZx1JxwcRUl0WM3LN24I,"R. Eduardo Bezerra, 835 - São João do Tauape, Fortaleza - CE, 60130-270",N/A,N/A,+55 85 98731-6077,4.8,211,-3.7536365999999997,-38.5127403,ceará
3,L&R Celular e Acessórios,,ChIJcfwIVbVPxwcRouo98_drYYo,"R. I do Lot. Parque Adriano, 1028 - Passaré, Fortaleza - CE, 60867-330",N/A,N/A,,5,5,-3.8156361999999997,-38.5267957,ceará
5,NORTH CELL Assistência Técnica e Acessórios Para Celular,,ChIJsyk2v35JxwcRUBD7-Z18eyo,"Av. Bezerra de Menezes, 2226 - Loja C - São Gerardo, Fortaleza - CE, 60325-002",N/A,N/A,+55 85 3217-2841,4.5,39,-3.7354496999999998,-38.564735299999995,ceará
9,LS CELL - Assistência Técnica Especializada em Celulares,https://linktr.ee/lscell1,ChIJ75hIpvNPxwcRO9qoGERoqmU,"R. Nicolau Coelho, 285 - Messejana, Fortaleza - CE, 60841-420",N/A,N/A,+55 85 98642-1362,5,50,-3.8196931999999997,-38.4920237,ceará
11,Art Celular,,ChIJGSxvwqxJxwcRxv8d0eDgrWs,"R. Major Facundo, 680 - loja 3e 4 - Centro, Fortaleza - CE, 60025-100",N/A,N/A,+55 85 3252-2523,3.3,18,-3.7289678,-38.528345699999996,ceará
12,Center Cell,https://www.instagram.com/centercellbr/,ChIJGwUaMHhJxwcRiGYk_0CMN6g,"Av. Santos Dumont, 1825 - Manuel Dias Branco, Fortaleza - CE, 60150-161",N/A,N/A,+55 85 98204-9159,4.8,43,-3.7331314,-38.507574399999996,ceará
13,Casa do Celular - Maranguape,http://www.casadocelular.com.br/,ChIJxbvlyq6rwAcRuv9vOKTsYM4,"R. Cel. Antônio Botelho, 254 - Centro, Maranguape - CE, 61940-005",N/A,N/A,+55 85 98566-3708,3,4,-3.8943301,-38.6840384,ceará
15,Americanas,https://www.americanas.com.br/lojas-proximas/33014556000196/L484?ordenacao=topSelling&utm_medium=meunegocio&utm_source=google&utm_campaign=marca:acom;midia:meunegocio;formato:00;subformato:00;idcampanha:pacotelocal&epar=mn_00_00_go_pacotelocal,ChIJBSlpDi1LxwcR_h0q6OZkwi8,"Av. Edson da Mota Correa, 620 - Centro, Caucaia - CE, 61600-040",N/A,N/A,,4.4,584,-3.7340489999999997,-38.6560597,ceará
16,Rede Multi Assistência - Fortaleza Celulares iPhone Xiaomi Videogame Notebook e Loja Aldeota Patinete Jbl Conserto Apple,https://redemultiassistencia.com.br/assistencia-tecnica-em-fortaleza/,ChIJA407XoBJxwcRfZLW0EALfTg,"R. Costa Barros, 2000 - Loja 20 - Aldeota, Fortaleza - CE, 60160-281",N/A,N/A,+55 85 3085-7741,4.7,85,-3.7320971,-38.506731699999996,ceará
17,Casa do Celular - Fortaleza 4,http://www.casadocelular.com.br/,ChIJ-4pDKdJJxwcRfk9k0TZViQY,"R. Sen. Pompeu, 856 - Centro, Fortaleza - CE, 60025-000",N/A,N/A,+55 85 98187-6741,1.9,28,-3.7260304,-38.530305399999996,ceará
18,FG CELL Assistência Técnica,https://youtu.be/CICz2_507_I,ChIJPQgvh2pKxwcR3fM4km6GImg,"Rua Ministro Antônio Coelho, 531f - Jardim Guanabara, Fortaleza - CE, 60347-230",N/A,N/A,+55 85 98152-5319,5,14,-3.7143713,-38.5930052,ceará
19,Smart Tech Conserto Tecnico Celulares,,ChIJXUwXRbRTxwcRPObZPmgCax4,"Rua: 128 N261C - Timbo, Maracanaú - CE, 61936-480",N/A,N/A,+55 85 99293-4506,5,1,-3.8778422999999997,-38.603505999999996,ceará
20,Rodrigo Cell Manutenção de celular e tablets,,ChIJH2PKhEVTxwcRbBnsGiIEvUw,"Rua João de Alencar, 92 - Centro, Maracanaú - CE, 61900-150",N/A,N/A,+55 85 98757-5822,3.4,8,-3.8793680999999998,-38.6229398,ceará
1,Casa do Celular Fortaleza 2 - Loja de Celulares em Fortaleza,,ChIJu6fs5KxJxwcRLp_3kUtXM0Q,"R. Barão do Rio Branco, 1009 - Centro, Fortaleza - CE, 60025-060",N/A,N/A,+55 85 3231-7888,2.9,256,-3.7272369999999997,-38.528341999999995,ceará
2,wncell manutenção e acessórios,,ChIJN7xj65lPxwcREuPokvj2zjs,"R. Júlia Sáles, 171 - Salinas, Fortaleza - CE, 60811-010",N/A,N/A,+55 85 99808-9938,4.7,7,-3.7720369999999996,-38.5016967,ceará
4,Jf Cell Celular,,ChIJEyQOCRVNxwcRdJAH3-3Bebc,"Av. Maciel Bezerra, 2090 - Siqueira, Fortaleza - CE, 60732-380",N/A,N/A,,,,-3.8082960999999997,-38.630254699999995,ceará
5,CCELL Assistência Técnica e Acessórios,,ChIJfX3ausJJxwcRu1uwVpuOi2g,"R. Papi Júnior, 4 - Rodolfo Teófilo, Fortaleza - CE, 60430-230",N/A,N/A,+55 85 99940-1503,5,1,-3.7392087999999997,-38.5459163,ceará
6,Mundo Digital Assistência Técnica de Celular,,ChIJjZ8tyQVTxwcRoU0PqjVwp4w,"R. 10, 71 - Jereissati I, Maracanaú - CE, 61900-290",N/A,N/A,+55 85 99210-1880,,,-3.8727427999999997,-38.6207072,ceará
8,"i.Solutions - Assistência Técnica em iPhone, iPad, Moto, Samsung e Lg.",,ChIJSTELQ4hIxwcRWQ5wwbSHdhg,"Shopping Center um (estacionamento - Av. Santos Dumont, 3130 - Aldeota, Fortaleza - CE, 60150-161",N/A,N/A,+55 85 3215-2835,3.9,27,-3.7374896,-38.497229999999995,ceará
11,Fort Cell- Loja de celulares e acessórios,,ChIJ770xEbJJxwcRr305cR5VDM0,"R 24 de Maio, 411 - Loja 179 - Centro, Fortaleza - CE, 60030-140",N/A,N/A,+55 85 98768-3831,4,6,-3.7251374,-38.5313631,ceará
12,Golden Cell Com de Celulares e Eletrônicos,,ChIJixgA31JIxwcRdGbEr1I4FuA,"R Pedro Borges, 143 - Centro, Fortaleza - CE, 60055-110",N/A,N/A,+55 85 3253-4145,5,1,-3.7281754,-38.5266783,ceará
13,Fabio Celular,,ChIJCdwwRehOxwcRAxxjzz_U8s8,"Serrinha, Fortaleza - CE, 60861-020",N/A,N/A,,,,-3.7839432,-38.539398899999995,ceará
14,Samsung Experience Store,https://www.samsung.com/br/campaign/storecontacts/,ChIJOX_GSl5FxwcRWR7YkZTTUJ8,"Av. Washington Soares, 4335 - Lagoa Sapiranga (Coité), Fortaleza - CE, 60833-005",N/A,N/A,+55 11 3230-3262,4.7,41,-3.7946074999999997,-38.4795714,ceará
15,I A TECH Informática E Celular Conserto De Placas Reparos,https://bio.site/cxXNra,ChIJE_Jfk2NNxwcRxhRmiBaNpPk,"Av. Contorno Leste, n: 205 - Nova Metrópole (Jurema), Caucaia - CE, 61676-899",N/A,N/A,+55 85 98934-4954,5,84,-3.7635826999999997,-38.6524709,ceará
16,Americanas,https://www.americanas.com.br/lojas-proximas/33014556000196/1079?ordenacao=topSelling&utm_medium=meunegocio&utm_source=google&utm_campaign=marca:acom;midia:meunegocio;formato:00;subformato:00;idcampanha:pacotelocal&epar=mn_00_00_go_pacotelocal,ChIJjwMqovhLxwcReSGgkPMrcN0,"Av. Lineu Machado, 419 - Jóquei Clube, Fortaleza - CE, 60520-101",N/A,N/A,,4.2,702,-3.7645139999999997,-38.5749624,ceará
17,AM celular,,ChIJ2wF5syxQxwcRrk_5Nj0C5jM,"Av. Gutemberg Braun, 292 A - Jangurussu, Fortaleza - CE, 60866-740",N/A,N/A,,,,-3.8367817,-38.5268838,ceará
18,Casa do Celular - Fortaleza 5,https://casadocelular.com.br/,ChIJ228d1-FJxwcRHFG4fqgG-hQ,"R. Sen. Pompeu, 846 - Centro, Fortaleza - CE, 60025-000",N/A,N/A,+55 85 99740-0699,3,2,-3.7261121,-38.529645599999995,ceará
19,Imperador do Celular Fortaleza,,ChIJRx2EadVJxwcR_ovSCQHbNnM,"R. Sen. Pompeu, 819 - Centro, Fortaleza - CE, 60025-000",N/A,N/A,+55 85 99188-1332,4.1,14,-3.7259848,-38.5291724,ceará
1,Lojas Americanas,https://www.americanas.com.br/lojas-proximas/33014556000196/1389?ordenacao=topSelling&utm_medium=meunegocio&utm_source=google&utm_campaign=marca:acom;midia:meunegocio;formato:00;subformato:00;idcampanha:pacotelocal&epar=mn_00_00_go_pacotelocal,ChIJHzmAsoBTxwcRVYsMsPqgGTM,"Av. Padre José Holanda do Vale, 1200 - Luzardo Viana, Maracanaú - CE, 61910-000",N/A,N/A,,4.1,56,-3.8577076,-38.6394102,ceará
2,Quality Cell - Assistência Técnica Especialista em iPhone,,ChIJNbeyvWNIxwcRCRmX-8QmAFU,"Av. Dom Luís, 300 - Loja 124 - Aldeota, Fortaleza - CE, 60160-230",N/A,N/A,+55 85 98764-9604,4.5,124,-3.7330337,-38.4989572,ceará
3,Tej cases e acessorios assistência técnica,https://www.instagram.com/tej_cases_e_acessorios?r=nametag,ChIJd0jRj4pPxwcRjUc7mSWhn94,"Rua Frei Caneca, 210 - Jardim Das Oliveiras, Fortaleza - CE, 60820-000",N/A,N/A,+55 85 99108-5466,,,-3.7857965,-38.5088978,ceará
4,Conserto de celular,,ChIJ_07pXYNHxwcRkHDkuMMzQ30,"Av. César Cals, 4038 - praia do futuro, Fortaleza - CE, 60182-685",N/A,N/A,+55 85 99295-0903,5,1,-3.749484,-38.450817,ceará
6,ServPhone Celular,https://www.facebook.com/ServPhone.Assistencia/,ChIJt9tvTexOxwcRwRzs-LZIbhc,"R. Júlio Lima, 507 - Cidade dos Funcionários, Fortaleza - CE, 60822-500",N/A,N/A,+55 85 98793-3635,,,-3.7886097999999997,-38.5449561,ceará
8,Souza cell assistência técnica de celulares e tablets,,ChIJLSWW3f5LxwcRTYfEYNj3EM8,"R. Antônieta Clotilde, 959 - Jardim Iracema, Fortaleza - CE, 60330-605",N/A,N/A,+55 85 98599-4593,5,4,-3.7170023999999997,-38.5869159,ceará
9,DIAMOND CELL DIATRIBUIDORA DE PEÇAS PARA CELULAR,,ChIJNUSrm8tPxwcREGJaESws-CA,"R. do Helicóptero - Vila União, Fortaleza - CE, 60410-804",N/A,N/A,+55 85 98222-0012,5,2,-3.770663,-38.5337641,ceará
10,Americanas,https://www.americanas.com.br/lojas-proximas/33014556000196/1109?ordenacao=topSelling&utm_medium=meunegocio&utm_source=google&utm_campaign=marca:acom;midia:meunegocio;formato:00;subformato:00;idcampanha:pacotelocal&epar=mn_00_00_go_pacotelocal,ChIJ3daCv5BIxwcRp8jk5VyFE1s,"Rua Germano Franck, 300 - Parangaba, Fortaleza - CE, 60740-020",N/A,N/A,,4.2,1211,-3.7750144,-38.561756599999995,ceará
11,"ArretadoCell - Assistência Técnica Especilaizada Xiaomi, Motorola, Samsung, iphone Especialista em Telas e Baterias.",https://arretadocell.techcellsolucoes.com.br/,ChIJd8uG7e5JxwcRWSKNy8mfCEo,"R. Bárbara de Alencar, 635 - Centro, Fortaleza - CE, 60140-000",N/A,N/A,+55 85 93300-2005,5,52,-3.7362845,-38.5188713,ceará
14,Pronto Cell Celulares Assistência Técnica.,,ChIJN3TOLVZFxwcRvjPjFKlhyFk,"Rua Dr. Joaquim Bento, 741 D - Messejana, Fortaleza - CE, 60840-200",N/A,N/A,+55 85 99766-2044,4.7,168,-3.8281343999999997,-38.4850853,ceará
15,Americanas,https://www.americanas.com.br/lojas-proximas/33014556000196/L341?ordenacao=topSelling&utm_medium=meunegocio&utm_source=google&utm_campaign=marca:acom;midia:meunegocio;formato:00;subformato:00;idcampanha:pacotelocal&epar=mn_00_00_go_pacotelocal,ChIJX8PIIrVOxwcR2myK3ktqA8c,"Av. Professor Gomes de Matos, 1703 - Montese, Fortaleza - CE, 60410-001",N/A,N/A,,4.1,867,-3.7664564,-38.5500026,ceará
19,"Alexandre Cell , Assistência técnica, Celular eTablet",,ChIJcU-lYxJbxwcR_EM4GvLLhHU,"Av. Eusébio de Queiroz, 23 - Loja A - Centro, Eusébio - CE",N/A,N/A,,4,4,-3.8901195,-38.447927799999995,ceará
2,JR-ELETRONICOS,,ChIJZ66JbERNxwcRyy1HKQI3fKk,"R. Sete, CASA 800 - Conj. Esperança, Fortaleza - CE, 60763-777",N/A,N/A,+55 85 98926-1118,5,1,-3.8144142,-38.5915731,ceará
4,Maiko Cell,https://www.instagram.com/maikocell2019/,ChIJB-wO1VhNxwcRT3llW9z3mQo,"Av. Contôrno Norte, 1708B - Conj. Esperança, Fortaleza - CE, 60763-730",N/A,N/A,+55 85 98631-3788,4.8,17,-3.8097914,-38.5911137,ceará
6,Acell Acessórios e Eletrônicos,https://acellacessorios.com.br/contatos,ChIJx3-AFhNNxwcRHdNAMkUuP8A,"Av. Contôrno Norte, 1530 - Conj. Esperança, Fortaleza - CE, 60763-730",N/A,N/A,+55 85 98826-1977,4.7,59,-3.8115457999999998,-38.589653999999996,ceará
8,Smartcell tec,https://instagram.com/smartcell_tec?igshid=OGQ5ZDc2ODk2ZA==,ChIJIYAJMuBNxwcRqtMj7d-pKjw,"R. Bom Jesus, 318 - Bom Jardim, Fortaleza - CE, 60543-365",N/A,N/A,+55 85 98662-7892,5,3,-3.7957311999999996,-38.5968227,ceará
11,Simples Cell,,ChIJAQtKC05MxwcR437CnpywPpo,"Av. Oscar Araripe, 877 - Bom Jardim, Fortaleza - CE, 60543-452",N/A,N/A,+55 85 3497-5998,4.3,59,-3.7913395999999997,-38.599309999999996,ceará
12,Ed Cell,,ChIJ93GG1MtNxwcRY0oCtif-Kmw,"R. Cônego de Castro, 60730 - Vila Peri, Fortaleza - CE, 60730-190",N/A,N/A,+55 85 98791-9393,4,11,-3.8000414,-38.587220599999995,ceará
15,RR Cell Assistência e Acessórios,,ChIJCwVqPwBNxwcRS07Dvbr8C2o,"R. Um, 1344a - Mondubim, Fortaleza - CE, 60346-196",N/A,N/A,,5,2,-3.8155631,-38.579710899999995,ceará
17,Duarte capas e acessórios,,ChIJqwy0K1dNxwcRksDdl-ZdjGQ,"R. Raimundo Neri, 65 - Parque São José, Fortaleza - CE, 60730-220",N/A,N/A,+55 85 99645-1080,5,18,-3.7969793999999997,-38.585324199999995,ceará
18,Brasil Cell Assistência Técnica,https://brasil-cell-assistencia.localo.site/?utm_source=google_profile&utm_campaign=localo&utm_medium=mainlink,ChIJkfzIIrhNxwcRjqjK-bW_JOE,"R. Cônego de Castro, 4535 - Vila Peri, Fortaleza - CE, 60730-190",N/A,N/A,+55 85 99188-8935,5,2,-3.8046013,-38.591431899999996,ceará
19,Destak Cell,https://destakcell.com.br/,ChIJO3tUcC5NxwcROQB9Ok09uNk,"Rua Dom Xisto Albano, 823 - Vila Peri, Fortaleza - CE, 60730-165",N/A,N/A,,5,19,-3.792522,-38.5812818,ceará
20,Gegé Cell E Variedades,,ChIJZdeGX61NxwcRPzc9Qh6cQ5U,"R. Martins Carvalho, 610 - Bom Jardim, Fortaleza - CE, 60543-345",N/A,N/A,+55 85 98571-7589,4.6,28,-3.7963940999999997,-38.6005439,ceará
4,Nô Cell,,ChIJ28KaQOhNxwcRIrkwQtxbf-k,"Rua 12, 260 - Mondubim, Fortaleza - CE, 60767-720",N/A,N/A,,2.5,2,-3.813836,-38.581052899999996,ceará
8,Esteves iPhonesCell,,ChIJ63qjYPBNxwcRIsAEoY6HDrw,"R. D, 35 - Mondubim, Fortaleza - CE, 60767-350",N/A,N/A,+55 85 98603-4583,5,2,-3.8227170999999998,-38.580795699999996,ceará
9,Phoenix Cell Acessórios Oficial,,ChIJw0PVSTZNxwcROfQTbQG95VU,"Avenida Contôrno norte 1730-A Conjunto Esperança - Conj. Esperança, Fortaleza - CE, 60110-000",N/A,N/A,+55 85 98740-1611,5,1,-3.8096487999999997,-38.591347899999995,ceará
10,Rabello techcell,,ChIJnUiyWxhNxwcRvnyUU2wZ7g0,"R. Delta, 1193 - Manuel Sátiro, Fortaleza - CE, 60713-440",N/A,N/A,+55 85 98757-7729,5,2,-3.7994679,-38.5772956,ceará
17,Ctec assistência em telefonia,https://api.whatsapp.com/send?phone=5585982192701&text=(Google)%20Fala%20gente%20boa%20bora%20trabalhar,ChIJ2aau73tNxwcRKoVioEQOmqc,"R. Cônego de Castro, 4012 - Parque São José, Fortaleza - CE, 60730-190",N/A,N/A,+55 85 98219-2701,,,-3.8012770999999996,-38.5887129,ceará
19,Prime Cell Fortaleza (Loja 1),https://linktr.ee/primecellfortaleza,ChIJFTzCBbxPxwcRiffRnnKPimA,"Rua Olímpio de Noronha, 250 - Mondubim, Fortaleza - CE, 60761-490",N/A,N/A,+55 85 98797-9061,5,1,-3.8131155999999997,-38.559615199999996,ceará
1,Itim Cell Assistencia Tecnica e Acessorios,,ChIJJ68Sg25PxwcR06nLxkYdZmA,"R. 101, 1301 - Passaré, Fortaleza - CE, 60192-490",N/A,N/A,,5,11,-3.8060661,-38.5472155,ceará
2,ikki Store Passaré,https://www.ikkistore.com.br/,ChIJ285apSlJxwcR-e6Ii2VpSjo,"Av. Dr. Silas Munguba, 4301 - Passaré, Fortaleza - CE, 60140-155",N/A,N/A,+55 85 98859-0293,5,372,-3.7913335999999997,-38.5371446,ceará
3,Miami Cases,https://miamicases.com.br/loja05/,ChIJI4raDutPxwcRokME8QBns7Y,"Dentro do atacadão lag - Av. Bernardo Manuel, 11000 - Mondubim, Fortaleza - CE, 60761-740",N/A,N/A,+55 85 99264-7611,5,257,-3.8165396,-38.5571378,ceará
4,VJ ACESSORIOS,,ChIJ58vZ7ARPxwcR0RvtvYLnwfw,"Av. Argentina Pinheiro Tôrres, 1523 - Passaré, Fortaleza - CE, 60867-065",N/A,N/A,+55 85 99282-3138,5,2,-3.8137896,-38.5403494,ceará
6,Dimitec | Loja de celular | Assistência técnica,https://www.instagram.com/dimitec_/,ChIJfScU19hPxwcRAyPwzQGLZlU,"Rua Desembargador Otacílio Peixoto, 523 - Passaré, Fortaleza - CE, 60743-680",N/A,N/A,+55 85 99199-9711,5,16,-3.8002989,-38.535161699999996,ceará
7,+TECH IMPORTS | Celulares e Acessórios,,ChIJ7fEuVEJPxwcR0HrY8isGObw,"Av Professor José Arthur de Carvalho - Lagoa Redonda, Fortaleza - CE, 60831-370",N/A,N/A,+55 85 99738-8284,5,6,-3.8099684999999996,-38.5359312,ceará
8,Assistência Técnica - Computador e Celular,,ChIJ3TrLJUFOxwcRyOuMk0xsztM,"Av. Moura Matos, 1550 - Passaré, Fortaleza - CE, 60861-350",N/A,N/A,,4.7,3,-3.8122713999999998,-38.5436054,ceará
9,LC Cases,,ChIJ3Y4smttPxwcRIhr0MlY5HzY,"Rua 8,30D,Conjunto Planalto Mirassol - Parque Dois Irmãos, Fortaleza - CE, 60743-280",N/A,N/A,+55 85 99143-4781,5,1,-3.7974009,-38.543172999999996,ceará
14,Daniel TopCell Assistência técnica e Acessórios de celular,https://www.instagram.com/danyeltopcell/,ChIJmXLF80JPxwcRWe_xV52_Ew8,"R. São Rafael Arcanjo, 508 - Itaperi, Fortaleza - CE, 60714-222",N/A,N/A,+55 85 98710-2171,5,8,-3.8067805,-38.5558853,ceará
16,Guedex 2,https://instagram.com/guedex_acessorios?igshid=OGQ5ZDc2ODk2ZA==,ChIJbfejym5PxwcRvJIu1xIx34g,"Av. Bernardo Manuel, 10109 - Fátima, Fortaleza - CE, 60761-281",N/A,N/A,+55 85 98210-1303,5,15,-3.8069946,-38.553765899999995,ceará
17,Blu Cases Passaré,https://www.instagram.com/blucases_/,ChIJqRg_Xm1PxwcRc0mQpxLmzlE,"Pátio Passaré - Av. Dr. Silas Munguba, 4820 - Loja A9 - Passaré, Fortaleza - CE, 60714-502",N/A,N/A,+55 85 99654-4241,5,2,-3.7957023999999997,-38.5327622,ceará
18,Cleiton Cell,,ChIJ-wqjJmBOxwcRwA-gtgvJ8TY,"R. Maj. Telesford - Parque Dois Irmãos, Fortaleza - CE, 60743-238",N/A,N/A,+55 85 98872-7116,5,3,-3.7983941999999997,-38.5497478,ceará
19,JK Assistec Concertos Celulares IPhone/Android,https://wa.me/message/D6ZQLXTTFV5WJ1,ChIJbRYAc7hPxwcRaWsy6TIrkcQ,"Av. dos Eucaliptos, 27 - Edson Queiroz, Fortaleza - CE, 60714-660",N/A,N/A,+55 88 99311-8519,,,-3.8011391,-38.5557157,ceará
3,BTEC PHONE,,ChIJo5WVFp9PxwcRIUvcU2pX0Pc,"R. Holanda, 1646 - Jardim Cearense, Fortaleza - CE, 60712-165",N/A,N/A,+55 85 99732-7394,5,2,-3.8030839,-38.559954999999995,ceará
4,Vs Celular,http://www.marapongamartmoda.com.br/,ChIJ0XQ88X1OxwcR-7z4s64Bn1w,"R. Francisco Glicério, 290 - Maraponga, Fortaleza - CE, 60714-750",N/A,N/A,+55 85 3016-2950,,,-3.7973239,-38.5634808,ceará
5,Celular e acessórios & toda cor modas,,ChIJ2bv96_FPxwcRdk6bomBYLto,"R. Fiscal Vieira, 3570 - Lojas 43 e 45 - Joaquim Távora (Fortaleza), Fortaleza - CE, 60120-170",N/A,N/A,+55 85 99211-8966,,,-3.8254411,-38.554796499999995,ceará
8,Mk Cell-assistência técnica de celular,,ChIJz2ORqY5PxwcR8XWXOTdU6kE,"R. Campo Maior, 110A - Rachel de Queiroz, Fortaleza - CE, 60714-730",N/A,N/A,+55 85 98791-5109,,,-3.7953243,-38.553552499999995,ceará
11,Americanas,https://www.americanas.com.br/lojas-proximas/33014556000196/1078?ordenacao=topSelling&utm_medium=meunegocio&utm_source=google&utm_campaign=marca:acom;midia:meunegocio;formato:00;subformato:00;idcampanha:pacotelocal&epar=mn_00_00_go_pacotelocal,ChIJYclesP5OxwcRM5cKjG0SmWg,"Av. Dr. Silas Munguba, 4820 - Loja C - Itaperi, Fortaleza - CE, 60714-242",N/A,N/A,,4,463,-3.7965910999999997,-38.5337606,ceará
12,Pro Cell Assistência técnica em Celulares e tablets.,,ChIJR75kbCpPxwcR3OTpH_BNMWc,"R. 8 (Cj João Paulo II), 084 - Barroso, Fortaleza - CE, 60810-810",N/A,N/A,+55 85 98631-1854,5,8,-3.8247027,-38.5190497,ceará
13,Lojas Americanas,https://www.americanas.com.br/lojas-proximas/33014556000196/L437?ordenacao=topSelling&utm_medium=meunegocio&utm_source=google&utm_campaign=marca:acom;midia:meunegocio;formato:00;subformato:00;idcampanha:pacotelocal&epar=mn_00_00_go_pacotelocal,ChIJMWHGe11OxwcRicmbJE6_WoM,"R. Ecilda de Queiroz, 200 - Parque Dois Irmãos, Fortaleza - CE, 60761-285",N/A,N/A,,4.3,380,-3.8207784,-38.5560495,ceará
14,Recicla cell - Assistencia Técnica De Celulares,,ChIJ41clRqBPxwcRnTVHVETKjXo,"60860554 - R. Ferreira Lima, 71 - Dias Macedo, Fortaleza - CE, 60860-554",N/A,N/A,+55 85 99731-1605,3,2,-3.7910204,-38.528815699999996,ceará
15,W Cell Celulares,,ChIJT04p4shPxwcRV9NU54Vge3U,"Passaré, Fortaleza - CE, 60810-670",N/A,N/A,+55 85 98592-1848,,,-3.8165486,-38.528890499999996,ceará
20,Smart Play Acessórios Para Celular,https://www.instagram.com/smartplay_fortaleza/,ChIJvZq6noxPxwcR9Q3SnzIYegc,"Avenida: Deputado Paulino Rocha, 55 - Cajazeiras, Fortaleza - CE, 60864-310",N/A,N/A,+55 85 98132-4804,4.9,35,-3.8021175,-38.5075018,ceará
1,Louyse Cell,http://www.grandshopping.com.br/lojas,ChIJDzX-F-1PxwcRCmyHz-HGaAo,"Av. Frei Cirilo, 3840 - Messejana, Fortaleza - CE, 60840-285",N/A,N/A,+55 85 3923-1389,3.2,23,-3.8177575999999998,-38.497321,ceará
3,Loja Vivo,https://vivo.com.br/para-voce/ajuda/mais-ajuda/encontre-uma-loja?_gl=1*pwmg40*_gcl_aw*R0NMLjE3MzI1MjU4MzMuRUFJYUlRb2JDaE1Jek15VjBkdjFpUU1WMDJ6ZEFoMTBNU0plRUFFWUFTQUFFZ0lsWXZEX0J3RQ..*_gcl_dc*R0NMLjE3MzI1MjU4MzMuQ0t6LV90ZmI5WWtERlRWSzNRSWQxUUVEY1E.*_gcl_au*MTUzOTUwNjgxNS4xNzMxNjIxOTE3*_ga*MjEyMzgwODk5Mi4xNzMxNjIxOTI5*_ga_JWH50P3VES*MTczMjkwMzAzNC40LjEuMTczMjkwMzA4OS41LjAuMA,ChIJ4zVxgRqvQAcR1UJOLNx3OxA,"Av. Frei Cirilo, 3840 Térreo - Loja 62 - Messejana, Fortaleza - CE, 60840-285",N/A,N/A,+55 800 100 1011,3.5,38,-3.8182001999999997,-38.4975492,ceará
5,Empório Acessórios e Assistência Técnica,https://instagram.com/emporio_acessorios2?igshid=OGQ5ZDc2ODk2ZA==,ChIJ08L7wOVFxwcRYfHDyqaKku8,"Via sul - Av. Washington Soares, 4335 - 2° piso - Lagoa Sapiranga (Coité), Fortaleza - CE, 60833-005",N/A,N/A,+55 85 99903-8240,5,115,-3.7946074999999997,-38.4795714,ceará
6,"Ibyte Grand Shopping: Notebook, PC, Games, Celulares, TV Smart em Fortaleza",https://www.ibyte.com.br/,ChIJU8FPxUtPxwcRaMNTwmoOX34,"Av. Frei Cirilo, 3840 - Loja 94 - Messejana, Fortaleza - CE, 60840-285",N/A,N/A,+55 85 99164-3707,4.4,72,-3.8179724999999998,-38.4974458,ceará
7,Samsung Experience Store,https://www.samsung.com/br/campaign/storecontacts/,ChIJ7aW3HhRPxwcRc9XqbD6IDv0,"Av. Frei Cirilo, 3840 - Messejana, Fortaleza - CE, 60840-285",N/A,N/A,+55 11 3230-3262,4.3,231,-3.8183844999999996,-38.4978857,ceará
8,Pegado Store - Assistência Técnica Especializada Apple e Acessórios para Celular - Fortaleza,,ChIJewu7EhNFxwcRoUhFEhIe-ZU,"Av. Edilson Brasil Soares, 1167 - Lagoa Sapiranga (Coité), Fortaleza - CE, 60834-005",N/A,N/A,+55 85 99689-5948,4.9,104,-3.7889087999999997,-38.4759992,ceará
9,Bcases - Mega Atacadista,,ChIJd7Et9Q5PxwcRO-NRQq3o1-k,"Av. Frei Cirilo, 3270 - Messejana, Fortaleza - CE, 60840-285",N/A,N/A,+55 85 2180-6919,3.8,10,-3.8138452999999997,-38.4994253,ceará
12,Im Up Av Oliveira Paiva Loja de Acessorios para Celular Fortaleza - CE,http://www.imup.com.br/,ChIJV2lGex1PxwcRt0aBlHK2iZQ,"Cometa Supermercados - Oliveira Paiva, Dentro do - Av. Oliveira Paiva, 1881 - Quiosque 01 - Cidade dos Funcionários, Fortaleza - CE, 60822-131",N/A,N/A,+55 85 98885-8287,5,824,-3.7955191999999998,-38.4901696,ceará
13,Grand Cell,https://www.instagram.com/lojagrandcell_/,ChIJCT-SiAdPxwcRWQ-Y-SvWMwo,"Av. Frei Cirilo, 4000 - Messejana, Fortaleza - CE, 60840-285",N/A,N/A,+55 85 98511-6834,5,10,-3.8185168,-38.4971878,ceará
16,Geração Tech - Assistência Técnica em Celulares Apple e Android,https://www.instagram.com/geracaotechbrasil/,ChIJk9JLUlNPxwcRU-Xm6Lsluq4,"R. Chico Lemos, 610 - sala 10 - Cidade dos Funcionários, Fortaleza - CE, 60822-785",N/A,N/A,+55 85 98887-3828,5,33,-3.7937768999999997,-38.4981947,ceará
17,"Elson Cell | Manutenção e Conserto de Celulares, Tablets, Iphones, Ipads, Computadores, Notebooks, MacBooks em Fortaleza",https://linktr.ee/elsonsouzacell?fbclid=PAAaabwsQNQKQPJx1y72F5RO9Z87tLkD61SG0D-3F3Cie02Sy-GpeErkJXc-s,ChIJkeFz9sRPxwcRyfOYqgnO040,"R. Antônio de Castro, 511 - loja 01 - Cidade dos Funcionários, Fortaleza - CE, 60822-510",N/A,N/A,+55 85 99416-9757,5,406,-3.7950005,-38.5007154,ceará
18,Leo Cell Assistência Técnica celular na loja 4as Variedades,,ChIJd7rbYBlPxwcRqBLm7dtkYj0,"R. Oito, 39-37 - Barroso, Fortaleza - CE, 60863-027",N/A,N/A,+55 85 98705-9827,5,6,-3.8186001,-38.513082399999995,ceará
19,Pecas E Acessorios W Cell,,ChIJYcq6nsFPxwcR7QnmCXbFw4A,"Av. Cap. Waldemar Paula Lima, 668 - Barroso, Fortaleza - CE, 60862-580",N/A,N/A,,4,1,-3.8198035,-38.508362399999996,ceará
20,Container do Celular | Assistência Técnica e Acessórios para Celular,,ChIJTzM9dItFxwcRB-88AXiFVps,"Av. Washington Soares, 3340 - Edson Queiroz, Fortaleza - CE, 60821-765",N/A,N/A,+55 85 3099-1077,4.3,115,-3.788027,-38.480806,ceará
1,D.GCELL,,ChIJpb7hGJJJxwcROX-mTv4hL8o,"Av. Oliveira Paiva, 1205 - Cidade dos Funcionários, Fortaleza - CE, 60822-130",N/A,N/A,+55 85 98502-2078,4.7,56,-3.7952649999999997,-38.495658299999995,ceará
2,B-TECH assistência técnica conserto de celulares,https://www.instagram.com/b_tech22/,ChIJHZ8wWq5PxwcRCp013mWEREk,"Av. Dep. Paulino Rocha, N°55 - Cajazeiras, Fortaleza - CE, 60864-311",N/A,N/A,+55 85 99737-2592,4.6,9,-3.8018406999999996,-38.5074563,ceará
3,Isaac Celulares,https://www.instagram.com/isaaccelulares/,ChIJYaN9_PhPxwcR1dDcvJ0c-jE,"Rua Dr. Joaquim Bento, 479 B - Messejana, Fortaleza - CE, 60840-200",N/A,N/A,+55 85 98657-4552,4.7,125,-3.8282874,-38.4874136,ceará
4,Matheus Cell - Assistência Técnica de Celular e Acessórios,https://mywhats.net/lojamatheuscell,ChIJVY0VjrGBvGARWpakbIq-7MY,"R. Tomé de Souza, 270 - Messejana, Fortaleza - CE, 60841-140",N/A,N/A,+55 85 98212-9722,5,17,-3.8247628999999996,-38.4857516,ceará
5,Famosinhocell,,ChIJAebSjb9PxwcRdy4R2Io6lV8,"Av. Cap. Waldemar Paula Lima, 372 - Barroso, Fortaleza - CE, 60862-580",N/A,N/A,+55 85 98965-6518,4.7,40,-3.8163650999999996,-38.507625499999996,ceará
8,Sideral Celulares,,ChIJkx4na_xPxwcRe1lcYkOhTtY,"Mapel Shopping Center - Loja 95, R. Padre Pedro de Alencar, 302 - Messejana, Fortaleza - CE, 60840-280",N/A,N/A,+55 85 98625-5602,4.3,11,-3.8303475999999996,-38.4941562,ceará
9,Fortal Notebook / Celular - Assistência Técnica,https://fortalnotebook.com/,ChIJ7-Nibz9PxwcRt1pIFfoDB08,"Av. Oliveira Paiva, 1520 - Cidade dos Funcionários, Fortaleza - CE, 60822-131",N/A,N/A,+55 85 98566-3533,5,172,-3.7958759,-38.4930735,ceará
10,Miami Cases,https://www.instagram.com/miamicases/,ChIJJQ1Y1plFxwcRoRZbcdPyWTA,"Av. Maestro Lisboa, 802 - Alagadiço Novo, Fortaleza - CE, 60835-475",N/A,N/A,+55 85 99434-3375,5,491,-3.808362,-38.4724578,ceará
11,Relógios E Celulares,,ChIJy7LZEfxPxwcRfT_kj6Ioaxc,"R. Joaquim Felício - Messejana, Fortaleza - CE, 60840-115",N/A,N/A,+55 87401866,5,2,-3.8302758999999997,-38.4910535,ceará
12,Sos Celular,,ChIJwaoteflPxwcRKhDYp8h6JFU,"R. Dona Josefa Barros de Alencar, 90 - Messejana, Fortaleza - CE, 60841-350",N/A,N/A,,,,-3.8279509,-38.4899025,ceará
14,Casa do Celular - Messejana,http://www.casadocelular.com.br/,ChIJxWdZqJ1PxwcRVkG9V80RYOE,"Rua Dr. Pergentino Maia, 201 - Messejana, Fortaleza - CE, 60840-045",N/A,N/A,+55 85 98228-1788,3.1,61,-3.8306774,-38.493240799999995,ceará
15,Americanas,https://www.americanas.com.br/lojas-proximas/33014556000196/L477?ordenacao=topSelling&utm_medium=meunegocio&utm_source=google&utm_campaign=marca:acom;midia:meunegocio;formato:00;subformato:00;idcampanha:pacotelocal&epar=mn_00_00_go_pacotelocal,ChIJtY48_ahPxwcRtnqwABcCg9w,"Av. Frei Cirilo, 03916 - Messejana, Fortaleza - CE, 60840-285",N/A,N/A,,4.4,463,-3.8183922,-38.4976102,ceará
16,Americanas,https://www.americanas.com.br/lojas-proximas/33014556000196/L327?ordenacao=topSelling&utm_medium=meunegocio&utm_source=google&utm_campaign=marca:acom;midia:meunegocio;formato:00;subformato:00;idcampanha:pacotelocal&epar=mn_00_00_go_pacotelocal,ChIJWaiDy19FxwcRk_n5QaimQpc,"Av. Washington Soares, 4335 - Lagoa Sapiranga (Coité), Fortaleza - CE, 60833-005",N/A,N/A,,4.2,809,-3.7950135,-38.479729299999995,ceará
18,Celular Mania,,ChIJzSZK7ExPxwcR9rdNECY_k2o,"Shopping Giga Mall - R. José Hipólito, 264 - Loja 1223 - Messejana, Fortaleza - CE, 60871-170",N/A,N/A,+55 85 99865-5650,5,14,-3.8331828,-38.4930046,ceará
19,Mister Computadores e Celulares,https://www.mistercec.com.br/,ChIJe_GJcG1PxwcR92YT8Cd-BIw,"Rua da Glória, 871 - Cidade dos Funcionários, Fortaleza - CE, 60822-635",N/A,N/A,+55 85 3017-4490,4.8,47,-3.7918038999999997,-38.503885499999996,ceará
20,Negão Cell,http://www.xn--negocell-tza.com.br/,ChIJg2AnfqNPxwcRl_u77Zws17U,"Mercado da messejana - Rua: joaquim Felicio, n:320 - loja,53 - Messejana, Fortaleza - CE, 60840-045",N/A,N/A,+55 85 98633-3383,5,48,-3.8304340999999997,-38.492103,ceará
1,Loja de acessórios para Celular Iguatemi l Playcases,https://www.instagram.com/playcasesiguatemi_?igsh=NjltYzd1bXV6Y3J4,ChIJfxhwIkhJxwcRrMzTzQMIIE8,"Av. Washington Soares, 85 - loja - 109 - Edson Queiroz, Fortaleza - CE, 60811-341",N/A,N/A,+55 85 3044-4899,4.7,15,-3.7556642,-38.488188799999996,ceará
5,Victor Store Oficial,http://instagram.com.br/victorstoreoficial,ChIJEQIJNx1QxwcRfFF6-0mZGEw,"R. Chico França, 330 - Loja 4 - Messejana, Fortaleza - CE, 60871-100",N/A,N/A,+55 85 98549-6932,4,2,-3.8347466999999997,-38.4961426,ceará
6,Vip cell Messejana,,ChIJu6zbE1JPxwcRbWpa4NaEcCM,"Rua Coronel Guilherme Alencar, 245 - Messejana, Fortaleza - CE, 60840-340",N/A,N/A,+55 85 99645-3988,4,3,-3.8323473,-38.4918006,ceará
7,"Take A Case l Loja de acessórios para celular, Capinhas, Cases,Cabo para iPhone, Fone de Ouvido | Fortaleza Ce",https://www.instagram.com/take.acase?utm_source=ig_web_button_share_sheet&igsh=ZDNlZDc0MzIxNw==,ChIJL78i26ZIxwcR2j-QmIxdm7I,"Av. Washington Soares, 85 - Edson Queiroz, Fortaleza - CE, 60811-341",N/A,N/A,+55 85 2180-6964,4.4,15,-3.7573209,-38.4882,ceará
8,GTA Celulares,,ChIJnVMoa_xPxwcRhvUKJSH0xDo,"Rua Coronel Guilherme Alencar, 51 - Loja 01 - Messejana, Fortaleza - CE, 60840-340",N/A,N/A,+55 85 3474-3506,2,2,-3.8303008,-38.4913515,ceará
9,MF CELULARES,,ChIJ46LO07hPxwcRF86kK-2OhOg,"R. Marta Gradvohl, 260 - Paupina, Fortaleza - CE, 60540-272",N/A,N/A,+55 85 99774-0883,4.9,88,-3.8511936999999996,-38.4908007,ceará
10,Henrique Cell Atacadão,https://instagram.com/henriquecellfortaleza?igshid=YmMyMTA2M2Y=,ChIJuxwKIV1FxwcRMJh5naE-K80,"Av. Maestro Lisboa, 2295 - Lagoa Redonda, Fortaleza - CE, 60832-402",N/A,N/A,+55 85 98209-7377,4.6,71,-3.8070353999999997,-38.459154399999996,ceará
12,PJ INFO - ASSISTÊNCIA TÉCNICA INFORMÁTICA - CELULAR - IMPRESSORA,,ChIJneH79lFFxwcRjJ5pON2j9rA,"Av. Viena Weyne, 135 - Cambeba, Fortaleza - CE, 60822-180",N/A,N/A,+55 85 92151-1560,5,22,-3.8003473999999997,-38.4928151,ceará
13,Americanas,https://www.americanas.com.br/lojas-proximas/33014556000196/L275?ordenacao=topSelling&utm_medium=meunegocio&utm_source=google&utm_campaign=marca:acom;midia:meunegocio;formato:00;subformato:00;idcampanha:pacotelocal&epar=mn_00_00_go_pacotelocal,ChIJBViiEbVFxwcR6zYgeEA4E2Y,"Av. Washington Soares, 3690 - Agua Fria, Fortaleza - CE, 60830-641",N/A,N/A,,5,6,-3.8034152999999997,-38.4794717,ceará
14,Help Cell - O Pronto Socorro Do Seu Celular,,ChIJo8dNaplFxwcR_DwFdCIu1qQ,"R. Euclídes Onófre de Souza, 1330 - Lagoa Sapiranga (Coité), Fortaleza - CE, 60833-252",N/A,N/A,+55 85 98811-8767,4.9,7,-3.7973572,-38.4681102,ceará
15,AM celular,,ChIJo1kIE7xRxwcR77oGzZ7FINo,"Avenida Gutemberg Brown, R. São Cristovão, 292 - A, Fortaleza - CE, 60866-704",N/A,N/A,+55 88 99624-3315,5,1,-3.8368453999999996,-38.5268264,ceará
17,Anderson tech cell Assistência Técnica Celular Tablet,,ChIJd_GOSEFPxwcRDoQ4Nr_USWM,"Av. Rogaciano Leite, 2578 - Jardim Das Oliveiras, Fortaleza - CE, 60821-072",N/A,N/A,+55 85 99408-7788,4.3,7,-3.7808097,-38.5018805,ceará
18,Magazine Luiza,https://lojas.magazineluiza.com.br/filiais/873?utm_source=google&utm_medium=maps&utm_campaign=gmb,ChIJl38C0YhFxwcRG-xOC8ZTfm8,"Av. Washington Soares, 4055 - Loja 01 - Edson Queiroz, Fortaleza - CE, 60821-750",N/A,N/A,+55 85 3194-0800,4.1,1075,-3.7923411,-38.4797769,ceará
20,MW Cell Assistência Técnica e Acessórios de Celular Sapiranga,https://bit.ly/3uoourK,ChIJCXXH5V1FxwcR53S1aFkUoZQ,"R. Euclídes Onófre de Souza, 1462 - Lagoa Sapiranga (Coité), Fortaleza - CE, 60833-252",N/A,N/A,+55 85 99253-6065,5,5,-3.7972156999999997,-38.4667971,ceará
1,Hebert Cell,,ChIJ2xO1pJxMxwcRw-35vr8yypA,"R. Vera Cruz, 689 A - Parque Guadalajara (Jurema), Caucaia - CE, 61650-240",N/A,N/A,+55 85 98875-3671,4.3,7,-3.7653659,-38.6226115,ceará
2,Lu Cell Acessórios,,ChIJ11oluOtNxwcRLLbcGY_oRY0,"R. Padre Alfredo Nesi, 473 - Parque Guadalajara (Jurema), Caucaia - CE, 61650-280",N/A,N/A,+55 85 99228-0313,5,6,-3.7672391999999997,-38.6221591,ceará
3,J.Cell Celulares,,ChIJMSWa_Z1MxwcRN5N12Fb_-wg,"R. Heribaldo Rodrigues - Parque Potira, Caucaia - CE, 61648-510",N/A,N/A,,5,1,-3.7618696,-38.626823699999996,ceará
4,XTECH,,ChIJZxVPpF5LxwcRtlvcTlzSfUw,"Av. Torreon, 1687 - Parque Guadalajara (Jurema), Caucaia - CE, 61650-350",N/A,N/A,+55 85 99162-3062,4.8,4,-3.7571491999999997,-38.6367975,ceará
5,Negão Cell,,ChIJWVckr1m1wAcRj5ktOAxWGZI,"R. Cordeiro de Miranda, 1356 - Conj. Metropolitano, Caucaia - CE, 61604-290",N/A,N/A,+55 85 98991-6006,5,2,-3.7591205,-38.6558932,ceará
6,Linny Cell,,ChIJNQ7igJpMxwcR5Hi0i86Aj34,"Av. Dom Almeida Lustosa, 3348 - Mal. Rondon (Jurema), Caucaia - CE, 61652-000",N/A,N/A,,5,4,-3.7697157999999997,-38.624018899999996,ceará
7,Mobile Informática e Serviços,https://www.instagram.com/mobileinformaticaeservicos/,ChIJK2DmM5tMxwcRNqRtrq4gAcs,"R. Padre Alfredo Nesi, 974 - Parque Guadalajara (Jurema), Caucaia - CE, 61650-280",N/A,N/A,+55 85 98549-1571,4.2,83,-3.7642203,-38.6252774,ceará
8,Clinic Cell,,ChIJW3VCjpBMxwcRE6-_YKxhcck,"Av. Dom Almeida Lustosa, 3454 - Mal. Rondon (Jurema), Caucaia - CE, 61652-000",N/A,N/A,+55 85 99168-2429,4.4,7,-3.7705435,-38.6246897,ceará
11,JTvariedades,https://linktr.ee/Jt.store,ChIJIfyVtYRMxwcR6lMMmzFi0PI,"Av. Dom Almeida Lustosa, 2925 - Jurema, Caucaia - CE, 61600-000",N/A,N/A,+55 85 98656-3678,5,29,-3.7669788,-38.6213602,ceará
12,CL CASES,https://bio.site/clcases,ChIJyasjVQBNxwcRVprdHmLqz_o,"R. Araquém, 1031 - Parque Potira, Caucaia - CE, 61650-210",N/A,N/A,+55 85 99800-6042,5,3,-3.7621200999999997,-38.624412,ceará
13,Micacell Tecnologia,,ChIJnxhzxoJMxwcRJIeMEuVKcEw,"R. Sacy, 221 - Parque Guadalajara (Jurema), Caucaia - CE, 61650-410",N/A,N/A,+55 85 98862-6991,5,4,-3.7603383,-38.6181067,ceará
14,JL CELL Assistência Técnica ®,,ChIJo4AAb2lNxwcRxGZhkjefynM,"Av. Dom Almeida Lustosa, 2741 - loja 9 - Parque Guadalajara (Jurema), Caucaia - CE, 61650-000",N/A,N/A,+55 85 98883-0390,4.8,39,-3.7662635,-38.6206988,ceará
15,Miami Cases,https://www.instagram.com/miamicases/,ChIJQf9gZI1NxwcRp8MyOqeMCsE,"Dentro do super do Povo - Av. São Vicente de Paula, 101 - Araturi, Caucaia - CE, 61652-140",N/A,N/A,+55 85 99743-1133,5,271,-3.7738473,-38.6282389,ceará
16,L&J CELL assistência técnica,,ChIJUWXTLG5NxwcRB2OV6m1mqkQ,"R. Capim Grosso, 215 - Mal. Rondon (Jurema), Caucaia - CE, 61652-310",N/A,N/A,+55 85 98869-3752,5,2,-3.7729819,-38.6252091,ceará
17,Jean Cell,,ChIJi5e0-4tMxwcRckkKkkFHkhQ,"Av. C, 1859 - Conj. Ceará II, Fortaleza - CE, 60533-610",N/A,N/A,+55 85 98751-8042,4.6,9,-3.7747827,-38.615786299999996,ceará
19,M2 Cell - Assistência Técnica Especializada,,ChIJj1RzxVezwAcRiuh9sVCXgfU,"Av, C, Blobo 35, Ap 11A - Loja 03 - Nova Metrópole, Caucaia - CE, 61658-070",N/A,N/A,+55 85 99206-0593,4.9,26,-3.7695952999999998,-38.656241099999995,ceará
1,PS SANTIAGO CELULARES | Parceiro autorizado TIM,https://www.tim.com.br/,ChIJE5XVIyJNxwcRbVe166J7RFU,"Av. Dom Almeida Lustosa, 3091 - Parque Guadalajara (Jurema), Caucaia - CE, 61650-000",N/A,N/A,+55 88 98832-9571,4,1,-3.7681096999999997,-38.6223483,ceará
3,Jhónny Cell Infór,,ChIJJY5U95pMxwcRwJ_q5IG2Ff4,"Av. Torreon, 83 - Parque Guadalajara (Jurema), Caucaia - CE, 61650-350",N/A,N/A,+55 85 98500-5488,,,-3.768372,-38.6238319,ceará
4,Marciano Cell,,ChIJI7-uA5NMxwcR41ApXpp-oP0,"Mal. Rondon, Caucaia - CE, 61652-610",N/A,N/A,,,,-3.7762433,-38.6246167,ceará
5,Smart Tech,https://smarttech1.mercadoshops.com.br/,ChIJvcWARpBMxwcREwcWHUAu5n8,"R. Nova Granada, 1090 - Mal. Rondon (Jurema), Caucaia - CE, 61652-370",N/A,N/A,+55 85 98727-1798,4.8,12,-3.7743637999999997,-38.6268884,ceará
6,F&E Cell,,ChIJddgynGFLxwcRBpB8Mrfs1fM,"R. Sacy, 232 - Parque Guadalajara (Jurema), Caucaia - CE, 61650-410",N/A,N/A,+55 85 99430-6127,,,-3.760526,-38.6184854,ceará
9,JPHONE,,ChIJh4GL92WzwAcR7XZl9LZnw04,"R. 256 - Nova Metrópole, Caucaia - CE, 61658-040",N/A,N/A,+55 85 98901-5436,5,2,-3.7695048,-38.6587465,ceará
13,"Conserto de computadores, notebooks, tablets e celulares. Marcelos ligue e agende.",,ChIJX-ZhJMu0wAcRY7bTuK3zy3g,"R. Francisco Djalma Soares, 1713 - Parque Soledade, Caucaia - CE, 61603-130",N/A,N/A,+55 85 98734-0360,5,2,-3.7415662,-38.6538963,ceará
14,Amorim Celulares metrópole,,ChIJqWeOWACzwAcRI5sml7NewJk,"Av. A, 455 - Nova Metrópole (Jurema), Caucaia - CE, 61658-050",N/A,N/A,+55 85 98796-7559,,,-3.7670169,-38.6553536,ceará
15,Fortal CellParts,,ChIJbZUJxDpNxwcRG-ADxOdAUpg,"Av. Torreon, 282 - Parque Guadalajara (Jurema), Caucaia - CE, 61650-350",N/A,N/A,+55 85 98542-1490,,,-3.7669189999999997,-38.6248291,ceará
18,HC Tech,http://www.hctechcell.com.br/,ChIJpT8WSglLxwcRY5vcGMv8P6A,"R. Morélia, 68 - A - Parque Albano, Caucaia - CE, 61648-100",N/A,N/A,+55 85 98553-8656,4.4,9,-3.7599391,-38.6163425,ceará
19,Sublimais Foto Produto,https://www.instagram.com/sublimaisfotoproduto/,ChIJ5z6S2GBLxwcR1LnuW9yp7Mk,"R. Tampico, 1821 - CS 6 - Parque Guadalajara, Caucaia - CE, 61650-210",N/A,N/A,+55 85 98741-2903,5,9,-3.7581187,-38.6294737,ceará
20,Regim Cell,,ChIJQfNRps5LxwcR56dLSpYI86Y,"Padre Andrade, Fortaleza - CE, 60356-001",N/A,N/A,,1,1,-3.735471,-38.583986599999996,ceará
1,Lojas Robin cell,,ChIJ5_kteRm1wAcR5G8e7R_s4C0,"Av. Juaci Sampaio Pontes - Centro, Caucaia - CE, 61600-150",N/A,N/A,+55 85 98841-9832,4.5,2,-3.7350711,-38.6579778,ceará
6,MILEO CELL,https://mileocell.kyte.site/,ChIJJf6hPfxLxwcRWzd4rIzCouQ,"R. Sobral, 985 - Tabapuazinho, Caucaia - CE, 61634-180",N/A,N/A,+55 85 98871-4497,4.7,6,-3.7400447999999997,-38.617046699999996,ceará
11,POINT CELL CAUCAIA,,ChIJ-Rb1SQC1wAcRl6IeZ0Gb3nU,"R. Jacobe Gomes, S/N - Box 13 - Centro, Caucaia - CE, 61600-040",N/A,N/A,+55 85 98828-8082,5,2,-3.735346,-38.6583889,ceará
13,Magazine Luiza,https://lojas.magazineluiza.com.br/filiais/765?utm_source=google&utm_medium=maps&utm_campaign=gmb,ChIJz-aV3ZpMxwcReQyJz9obYvU,"Av. Dom Almeida Lustosa, 3170 - Jurema, Caucaia - CE, 61645-000",N/A,N/A,+55 85 3387-7901,4.4,1398,-3.7684653999999997,-38.622935399999996,ceará
15,Movetech - Assistência técnica e Acessórios para celulares,,ChIJcxIhj41LxwcRWl8HdEfJn5Q,"R. Padre Cícero, 1708 - casa a - Parque Albano, Caucaia - CE, 61645-190",N/A,N/A,+55 85 98744-0012,,,-3.7516388,-38.612807499999995,ceará
17,Bota Pra Gerar Celulares,https://bota-pra-gera-celulares.kyte.site/,ChIJnRLTJyBLxwcR6AOB1l_JVzs,"Av. Major Assis, 1276 - Jardim Guanabara, Fortaleza - CE, 60346-372",N/A,N/A,+55 85 98975-0508,4.9,113,-3.7230944,-38.5905723,ceará
1,MH Cell Store,,ChIJJ0KeOEhJxwcROqk3C5uG80Y,"R. Aracajú, 728 - Henrique Jorge, Fortaleza - CE, 60521-095",N/A,N/A,+55 85 99197-3434,5,90,-3.7589856999999998,-38.5872332,ceará
2,UNIVERSO DAS CAPAS E ACESSÓRIOS PARA CELULARES E TABLETS,,ChIJ9fIaEotLxwcRPFTUP95WQig,"R. Goiânia, 1810 - Henrique Jorge, Fortaleza - CE, 60510-175",N/A,N/A,+55 85 98662-8652,4.9,9,-3.760608,-38.591954199999996,ceará
4,RCN SHOP,http://rcn.mercadoshops.com.br/,ChIJOQiZ15FLxwcRXJ4grfeCBr0,"Rua Professor Virgílio de Morais, 720 - Autran Nunes, Fortaleza - CE, 60526-450",N/A,N/A,+55 85 98629-8663,4.5,2,-3.7537331,-38.594094299999995,ceará
5,Loja Vivo,https://vivo.com.br/para-voce/ajuda/mais-ajuda/encontre-uma-loja?_gl=1*pwmg40*_gcl_aw*R0NMLjE3MzI1MjU4MzMuRUFJYUlRb2JDaE1Jek15VjBkdjFpUU1WMDJ6ZEFoMTBNU0plRUFFWUFTQUFFZ0lsWXZEX0J3RQ..*_gcl_dc*R0NMLjE3MzI1MjU4MzMuQ0t6LV90ZmI5WWtERlRWSzNRSWQxUUVEY1E.*_gcl_au*MTUzOTUwNjgxNS4xNzMxNjIxOTE3*_ga*MjEyMzgwODk5Mi4xNzMxNjIxOTI5*_ga_JWH50P3VES*MTczMjkwMzAzNC40LjEuMTczMjkwMzA4OS41LjAuMA,ChIJTwYvUculyJQRdPhtOvqQe9o,"Av. Lineu Machado, 419 - Lojas 1063 e 1064 - Jóquei Clube, Fortaleza - CE, 60520-101",N/A,N/A,+55 85 98164-3717,4.9,850,-3.7647340999999996,-38.5744554,ceará
8,Home Cell,,ChIJvX6JdvRLxwcRbTLLy4RmZi0,"Av. Senador Fernandes Távora, 1015 - Henrique Jorge, Fortaleza - CE, 60510-290",N/A,N/A,+55 85 98466-8883,5,2,-3.7621341,-38.582448899999996,ceará
11,R&R Cell,,ChIJeW2_NAlMxwcRLJCqLU2iMpY,"Av. Porto Velho, 292 - João XXIII, Fortaleza - CE, 60525-571",N/A,N/A,+55 85 99440-9132,5,2,-3.7678824,-38.583195499999995,ceará
12,RL Cell Serviços,https://www.instagram.com/rlcellservicoseacessorios/,ChIJ8e_QlL9LxwcRaXIkqBkW_Ws,"Rua Padre José Arteiro, 244 - Antônio Bezerra, Fortaleza - CE, 60360-060",N/A,N/A,+55 85 98948-6730,5,25,-3.7463683,-38.59118,ceará
13,Store_K Acessórios para celular,,ChIJiazft9RLxwcRlFlRWe16RcQ,"Rua Luciano Queiroz, 25 - Henrique Jorge, Fortaleza - CE, 60510-176",N/A,N/A,,5,6,-3.7578334,-38.5787263,ceará
14,TB Cell,,ChIJAQ_uFypNxwcR20k0k3ju804,"R. Silveira Filho, 466 - Jóquei Clube, Fortaleza - CE, 60520-055",N/A,N/A,+55 85 98753-4291,4.5,6,-3.7704169999999997,-38.5760856,ceará
17,Alemão Cell assistência técnica e acessórios,https://instagram.com/alemao.cell?igshid=YmMyMTA2M2Y=,ChIJVUY5eoFNxwcR5y4B8ftU-_4,"R. Cacilda Becker, 720 - Henrique Jorge, Fortaleza - CE, 60525-570",N/A,N/A,+55 85 98601-8244,5,4,-3.7696270999999997,-38.589811999999995,ceará
3,Nagem,https://www.nagem.com.br/,ChIJ779ZSgdMxwcR5G28tji0xmc,"Av. Lineu Machado, 419 - Jóquei Clube, Fortaleza - CE, 60520-102",N/A,N/A,+55 800 080 2021,4.3,184,-3.7652607999999996,-38.5744202,ceará
4,TOP CASES Imports | Acessórios para Celular e Assistência Técnica em iPhones,https://wa.me/5585987485359,ChIJk4THoOVLxwcRji9wrlZdkic,"R. Santo Amaro, 303 - Conjunto - Pici, Fortaleza - CE, 60511-480",N/A,N/A,+55 85 98748-5359,4.9,617,-3.7540942999999998,-38.5780217,ceará
7,Jean Cell,,ChIJz8Mipr9LxwcRI4zam9hRklA,"R. Joaquim Leitão - Antônio Bezerra, Fortaleza - CE, 60360-840",N/A,N/A,+55 85 98700-2320,4.4,24,-3.7453567999999997,-38.5919865,ceará
10,MC CELL LOJA,,ChIJd8II_v5LxwcRbmeCzyZde5k,"Rua Tenente Queiroz, 250 - Antônio Bezerra, Fortaleza - CE, 60360-170",N/A,N/A,+55 85 98797-6468,5,1,-3.7446998,-38.5883052,ceará
11,Stop Cell,,ChIJzbGdfgtMxwcRuDNuk-56A8M,"R. Prof. Heribaldo Costa, 1795 - João XXIII, Fortaleza - CE, 60525-335",N/A,N/A,+55 85 3044-6246,,,-3.767587,-38.587548,ceará
13,BL CASE & ACESSÓRIOS,,ChIJVw_twZlNxwcR8k6qHu64Cgg,"R. São João, 964 - Bonsucesso, Fortaleza - CE, 60545-495",N/A,N/A,+55 85 99632-3770,,,-3.770724,-38.5966634,ceará
14,Zé Cell,,ChIJQzcojJpLxwcRUbFTI3P716o,"Genibaú, Fortaleza - CE, 60534-310",N/A,N/A,+55 85 3294-7048,4.1,8,-3.7531404999999998,-38.6015239,ceará
15,Tiel Acessórios,,ChIJ8RAhw75NxwcR1ppux65Q-2E,"Rua Brigadeiro Torres, 1560 - casa A - João XXIII, Fortaleza - CE, 60525-235",N/A,N/A,+55 85 98536-1660,,,-3.7712505999999997,-38.582953499999995,ceará
20,Alisson cell,,ChIJ5W__Kom1wAcRgDRBsuXgx8k,"R. Porto Alegre, 1827 - Autran Nunes, Fortaleza - CE, 60526-725",N/A,N/A,+55 85 99736-6074,,,-3.7582779,-38.594487099999995,ceará
1,IPhoteca,https://iphoteca.com.br/,ChIJaUWGS4JJxwcRuJyvUjZ5Rqk,"| Dentro do posto de gasolina, Av. dos Expedicionários, 4474 - Loja-B - Parreão, Fortaleza - CE, 60410-302",N/A,N/A,+55 85 99791-8038,4.9,129,-3.757433,-38.5390815,ceará
2,Kaizen Store Rodoviária,,ChIJGwY_7ZFJxwcRLzGsQdyC2r0,"Avenida Borges de Melo, Rodoviária, 1630 - Loja 09 - Fátima, Fortaleza - CE, 60415-762",N/A,N/A,+55 85 99151-3045,4.8,21,-3.7577410999999996,-38.5306581,ceará
4,HCASE,https://instagram.com/hcasefortaleza?igshid=YmMyMTA2M2Y=,ChIJix9iBKtJxwcR8ITigaWKILk,"R. Queirós Ribeiro, 485 - Bom Futuro, Fortaleza - CE, 60410-072",N/A,N/A,+55 85 99114-9027,5,21,-3.7633894999999997,-38.5453391,ceará
7,Suporte Smart Fortaleza Montese,https://suportesmart.com.br/franquia/fortaleza-ce-montese/,ChIJ5SRcVw9JxwcRnHjxqvIrfb8,"Rua Dulcinéia Gondim, 306 - Loja 03 - Bom Futuro, Fortaleza - CE, 60416-480",N/A,N/A,+55 85 99760-7795,5,2,-3.7593191999999997,-38.544953199999995,ceará
10,GG CASE tudo para seu celular,https://instagram.com/ggcaseoficial?igshid=YmMyMTA2M2Y=,ChIJyZQSAzpJxwcRRsXmP92JKqI,"Av. Professor Gomes de Matos, 420 - Jardim América, Fortaleza - CE, 60416-392",N/A,N/A,+55 85 99107-6266,4.5,11,-3.7575306,-38.5425995,ceará
12,Lorim Celular - Assistência e acessórios,https://instagram.com/lorim_celular?igshid=YmMyMTA2M2Y=,ChIJtVVwXtNOxwcRUu2RII0kzxU,"R. Jorge Acurcio, 834 - Vila União, Fortaleza - CE, 60410-802",N/A,N/A,+55 85 98764-3109,4.9,102,-3.7676225999999997,-38.5328221,ceará
14,Fort Cell Tech Assistência Técnica Especializada em Iphone e Android,https://wa.me/558586101345,ChIJ___KvUpJxwcRUafDHBZ8xsY,"Av. Professor Gomes de Matos, 1544 - Montese, Fortaleza - CE, 60420-570",N/A,N/A,+55 85 3393-9373,4.3,112,-3.7648612999999997,-38.5489884,ceará
15,Cases De Ouro - Acessórios para celular no Montese,https://linktr.ee/casesdeourooficial,ChIJKwk00xBJxwcRg3JPrwzgLlE,"R. Alberto Magno, 283A - Montese, Fortaleza - CE, 60425-235",N/A,N/A,+55 85 99274-6464,5,21,-3.758803,-38.544533099999995,ceará
19,GM Topcase - Acessórios para celular,https://linktr.ee/gmtopcaseoficial,ChIJl3Y0nUpJxwcRDj3VLdHaQx8,"Av. Professor Gomes de Matos, 1377 - Montese, Fortaleza - CE, 60420-431",N/A,N/A,+55 85 98674-8564,5,6,-3.7642474999999997,-38.548107,ceará
20,Oba Cases & Acessórios Para Celular,https://linktr.ee/obacasesoficial,ChIJVaIcvTVJxwcRVlfthZI0L5E,"Próximo ao Banco do Bradesco - Av. Professor Gomes de Matos, 1540 - Montese, Fortaleza - CE, 60420-431",N/A,N/A,+55 85 99919-1902,5,4,-3.7648327,-38.548992999999996,ceará
2,FG Store iPhones - Fortaleza,https://wa.link/ocdmwu,ChIJbd0d3CFJxwcRiyDDSjTRE9M,"Av. Treze de Maio, 1116 - Fátima, Fortaleza - CE, 60040-530",N/A,N/A,+55 85 98811-9062,5,615,-3.7492275999999998,-38.5291235,ceará
4,Kellynha Assistência técnica,,ChIJG_7VbVhPxwcRWYrXUCmR5mc,"R. Alberto Montezuma, 356 - Vila União, Fortaleza - CE, 60410-772",N/A,N/A,+55 85 99734-7827,4.8,6,-3.7668744,-38.5337812,ceará
5,ELETROTEKCELL-FORTALEZA/CELULAR,http://eletrotekcellfortaleza.com.br/,ChIJf3IlpSRPxwcRzJF2Wcx21kY,"R. Alberto Magno, 625 - Montese, Fortaleza - CE, 60425-235",N/A,N/A,+55 85 98602-6767,4.2,5,-3.7611982999999998,-38.5466615,ceará
6,FoxCell & Eletronicos,https://instagram.com/foxcell_imports?utm_medium=copy_link,ChIJW0oujblOxwcROE1YbMEajcM,"R. Equador, 832 - Itaoca, Fortaleza - CE, 60740-470",N/A,N/A,+55 85 3292-0747,4.8,21,-3.7747249999999997,-38.552757,ceará
8,RafaCell Fortaleza assistência técnica de celulares,http://bit.ly/Cartao_de_Visita_Rafael_Acessorios,ChIJE8W_W29PxwcRS9rR56lALAI,"Tv. Peru, 129 - Parangaba, Fortaleza - CE, 60740-782",N/A,N/A,,4.9,32,-3.7791134,-38.5526684,ceará
11,"Ibyte Shopping Benfica: Notebook, PC, Games, Celulares, TV Smart em Fortaleza",https://www.ibyte.com.br/,ChIJOd3tVA5JxwcR4Q2MLBAzXJM,"2200 Lojas - R. Carapinima, 269-270 - Benfica, Fortaleza - CE, 60015-290",N/A,N/A,+55 85 99201-0948,4.1,305,-3.739102,-38.540175999999995,ceará
14,Magazine Luiza,https://lojas.magazineluiza.com.br/filiais/743?utm_source=google&utm_medium=maps&utm_campaign=gmb,ChIJ3TevJqVOxwcRSw34EsrOcb0,"Rua Germano Franck, 300 - Parangaba, Fortaleza - CE, 60740-020",N/A,N/A,+55 85 3487-7100,4.4,6770,-3.776102,-38.5620352,ceará
18,"TechCell Especialista em Tela e Baterias para iphone, Xiaomi, Motorola, samsung. GARANTIMOS O MELHOR PREÇO!",https://arretadocell.techcellsolucoes.com.br/,ChIJb4UUV_hIxwcRbX2bh4ui7oQ,"R. Nogueira Acioli, 1441 - Centro, Fortaleza - CE, 60110-140",N/A,N/A,+55 85 98855-0233,4.5,308,-3.7363052,-38.518873899999996,ceará
19,"ilovesmartwatch - Relógios Digitais | Acessórios | Eletrônicos, Montese",https://ilovesmartwatch.com.br/,ChIJY-DvP5JJxwcRq4j0zoYzAB4,"Rua Dulcinéia Gondim, 100 - Montese, Fortaleza - CE, 60416-480",N/A,N/A,+55 85 99832-7966,4.6,109,-3.7603145,-38.5435698,ceará
1,Quiosques case,,ChIJh8kKQKFIxwcRCyivd4oxVUk,"Av. Washington Soares, 450 - loja 7 - Guararapes, Fortaleza - CE, 60811-341",N/A,N/A,+55 85 98653-2395,3.5,57,-3.7581586,-38.4876861,ceará
4,ikki Store Dionísio Torres,https://www.ikkistore.com.br/,ChIJs0VuYtVJxwcRMpq0wdIowB4,"Av. Senador Virgílio Távora, 2201 - Quiosque 01 - Dionísio Torres, Fortaleza - CE, 60170-251",N/A,N/A,+55 85 98859-0293,5,302,-3.745611,-38.495747,ceará
6,"Ibyte Shopping Iguatemi: Notebook, PC, Games, Celulares, TV Smart em Fortaleza",https://www.ibyte.com.br/,ChIJ-YBhG6RIxwcRwu8CzgtTgro,"Avenida Washington Soares, Shopping Iguatemi, 85 - Edson Queiroz, Fortaleza - CE, 61811-341",N/A,N/A,+55 85 99178-9886,4.2,2108,-3.7573562,-38.4875736,ceará
7,Micro Fix,https://microfixoficial.com.br/,ChIJ70P4L2BJxwcRuCfchLEFqWA,"Posto Shell - Av. Pontes Vieira, 2250 - Dionísio Torres, Fortaleza - CE, 60130-240",N/A,N/A,+55 85 3017-1077,5,181,-3.7515939,-38.5016014,ceará
8,Filho cell.,https://www.instagram.com/reel/CP9Kzp_nWDU/?utm_medium=copy_link,ChIJY8XkTnxPxwcRYUTkoqhyJUk,"R. Min. Petrônio Portela, 373 - Eng. Luciano Cavalcante, Fortaleza - CE, 60810-820",N/A,N/A,+55 85 99799-4929,5,5,-3.7706163,-38.4987582,ceará
9,Sun Cell,,ChIJo-ieY5VIxwcRFCcyxKG0TlE,"Av. Pontes Vieira, 1969 - Dionísio Torres, Fortaleza - CE, 60130-240",N/A,N/A,+55 85 3272-1971,3.5,55,-3.7515204,-38.504229099999996,ceará
10,Naracell Acessórios Celulares,,ChIJwwOxptpJxwcRfMSEq11pFTw,"R. Floro Bartolomeu, 232 - São João do Tauape, Fortaleza - CE, 60130-530",N/A,N/A,+55 85 98942-2526,5,2,-3.7604045999999998,-38.5122143,ceará
11,PRIMO CELL,https://instagram.com/oprimocell?utm_medium=copy_link,ChIJ_6HKp3BPxwcRCPkR1_usIj4,"Rua 07, 765 - Jardim Das Oliveiras, Fortaleza - CE, 60820-620",N/A,N/A,+55 85 98666-6857,5,6,-3.7778701999999997,-38.5055615,ceará
13,Icases Acessórios para celulares,,ChIJby2zSAVJxwcRqahh05146ws,"Cocó, Fortaleza - CE",N/A,N/A,,3.3,3,-3.7417656,-38.487482199999995,ceará
14,Zen Soluções para Smartphones | Xiaomi | Assistência técnica Xiaomi | assistência técnica iPhone | hoverboard em fortaleza,https://www.instagram.com/zensolucoesparasmartphones?igsh=Nmx4aXlqcTZlOWlh&utm_source=qr,ChIJzTOz-f5JxwcRdgTKF72BumQ,"Av. Washington Soares, 450 - loja 4 - Guararapes, Fortaleza - CE, 60810-350",N/A,N/A,+55 85 99149-2338,4.9,852,-3.7581678999999997,-38.487792299999995,ceará
15,Casa do Celular - RioMar Papicu,http://www.casadocelular.com.br/,ChIJIasiggVHxwcRnrfumiesDmw,"R. Des. Lauro Nogueira, 1500 - Loja 1062-1 - Papicu, Fortaleza - CE, 60176-065",N/A,N/A,+55 85 97601-0253,1.2,23,-3.7410558999999997,-38.4705801,ceará
17,Apple Premium Reseller,https://www.iplace.com.br/,ChIJz-TpX25JxwcRsN8pqhI1ou8,"Av. Washington Soares, 85 - loja 38/44 - Edson Queiroz, Fortaleza - CE, 60811-900",N/A,N/A,+55 85 3477-3560,4.1,9,-3.7546614999999997,-38.489345799999995,ceará
18,"Im Up Cocó - Loja de acessórios para celular, Capinhas, Cases, Películas, Cabo para iPhone, Fone de Ouvido | Fortaleza Ce",http://www.imup.com.br/,ChIJmY-GraVHxwcR0q9LVRHMPII,"Dentro do Centerbox Supermercado - Av. Santos Dumont, 6500 - Loja 03 e 04 - Cocó, Fortaleza - CE, 60190-800",N/A,N/A,+55 85 98885-8287,5,1311,-3.7440841999999996,-38.4749343,ceará
20,"AS Imports - Assistência técnica, celulares e acessórios",https://instagram.com/asimports.iphone?igshid=MzRlODBiNWFlZA==,ChIJY53DEJFJxwcReNFAitpFNUs,"Av. Pontes Vieira, 1960 - Loja 04 - São João do Tauape, Fortaleza - CE, 60125-161",N/A,N/A,+55 85 99849-0670,5,26,-3.7519166999999998,-38.5042494,ceará
3,Magazine Luiza,https://lojas.magazineluiza.com.br/filiais/757?utm_source=google&utm_medium=maps&utm_campaign=gmb,ChIJwfVqBaRIxwcRYYvuTPpcD9Y,"Av. Washington Soares, 85 - 234 - Edson Queiroz, Fortaleza - CE, 60811-341",N/A,N/A,+55 85 98935-9815,4.2,3573,-3.7572981999999997,-38.488711599999995,ceará
4,"Im Up Meireles - Loja de acessórios para celular, Capinhas, Cases, Películas, Cabo para iPhone, Fone de Ouvido | Fortaleza Ce",http://www.imup.com.br/,ChIJM_cJ6D5JxwcR9rarDbtUtxw,"Dentro do Cometa Supermercado - R. Tibúrcio Cavalcante, 1885 - Quiosque 01 - Aldeota, Fortaleza - CE, 60125-045",N/A,N/A,+55 85 98885-8287,5,811,-3.7411765,-38.504153099999996,ceará
6,Alo Cases,https://www.instagram.com/_alocases/,ChIJ186K4cVHxwcRGmDAOrQCaBU,"Alameda das Boas Noites, 320 A - Quadra 29 - Cidade 2000, Fortaleza - CE, 60190-180",N/A,N/A,+55 85 98159-5387,4.8,17,-3.7496359999999997,-38.471957599999996,ceará
7,Assistência Técnica iPhone - Celulares E Tablets - iDoFix,,ChIJ6_saLf5FxwcR49d4q5OB7yI,"Av. Washington Soares, 1370 - 07 - Edson Queiroz, Fortaleza - CE, 60811-341",N/A,N/A,+55 85 3016-2926,3.7,7,-3.7708625,-38.482740199999995,ceará
10,Americanas,https://www.americanas.com.br/lojas-proximas/33014556000196/L148?ordenacao=topSelling&utm_medium=meunegocio&utm_source=google&utm_campaign=marca:acom;midia:meunegocio;formato:00;subformato:00;idcampanha:pacotelocal&epar=mn_00_00_go_pacotelocal,ChIJDXUg8KdIxwcRIw8ApRsigXw,"Av. Washington Soares, 85 - Edson Queiroz, Fortaleza - CE",N/A,N/A,,4.1,263,-3.7553984999999996,-38.4904128,ceará
11,"STARTECH Assistência Técnica Celular Xiaomi, Samsung, Motorola,LG e Apple",https://startechce.com.br/,ChIJP7d3ntVHxwcRdLdeanwclmU,"Av. Des. Moreira, 2033 - Loja 4 - Aldeota, Fortaleza - CE, 60170-001",N/A,N/A,+55 85 98920-3502,5,169,-3.7434103999999997,-38.5003959,ceará
12,"Ibyte Shopping RioMar: Notebook, PC, Games, Celulares, TV Smart em Fortaleza",https://www.ibyte.com.br/,ChIJzat0AS5GxwcR5T_NJ8IfQ-w,"R. Des. Lauro Nogueira, 1500 - Papicu, Fortaleza - CE, 60175-055",N/A,N/A,+55 85 99155-8878,4.2,324,-3.7417493,-38.471144699999996,ceará
13,JL SMART SOLUTION TEC,,ChIJzZZ5CDpHxwcRFR7OzhBHaNc,"R. Batista de Oliveira, 479 - Papicu, Fortaleza - CE, 60176-032",N/A,N/A,+55 85 98415-0710,5,2,-3.7399839,-38.4780477,ceará
14,"ADATECH ( Suprimento para Celular, Informática e Papelaria )",https://www.instagram.com/adatech.store/,ChIJp3meCABJxwcR_1sTfUiCW9M,"Av. Coronel Miguel Dias, 150 - Guararapes, Fortaleza - CE, 60810-160",N/A,N/A,+55 85 99182-6949,,,-3.7590923999999997,-38.488762699999995,ceará
15,Iservice conserto de celular e iphones a DOMICILIO,,ChIJX9wL1jRRxwcRgkfdt9W24Tw,"Av. da Abolição, 3238 - Meireles, Fortaleza - CE, 60165-078",N/A,N/A,+55 85 99990-5200,4.6,39,-3.7267242,-38.4904357,ceará
18,Eugênio Celulares,https://sites.google.com/view/eugniocelulares/p%C3%A1gina-inicial,ChIJx6nYs4pIxwcRQOyU2nF2zQ8,"R. Torres Câmara, 644 - Aldeota, Fortaleza - CE, 60150-060",N/A,N/A,+55 85 3224-5444,4.5,206,-3.7361104999999997,-38.5056866,ceará
19,Im Up - Aldeota,http://www.imup.com.br/,ChIJo6cd2ltIxwcR1AEPFkx0Yms,"Dentro do Pão de Açucar - Av. Santos Dumont, 1169 - loja 1 - Aldeota, Fortaleza - CE, 60150-160",N/A,N/A,+55 85 98885-8287,5,1450,-3.7308163999999997,-38.5134052,ceará
20,ArtLan Infor Cell.,https://linktr.ee/artlaninforcell?fbclid=PAZXh0bgNhZW0CMTEAAab_yBmvs75vkrzbCAEzGQrs8VuaFMioHPgDTV4pFRzL_hntgmcY1agv14M_aem_ATInb6s9i_dL0pZegyxCW_6nkmVMEnJF9SvtApqvcola2uEJDokwpAOmCmxPmPLscdEYGZkLkvEpx_BffnQE4fOq,ChIJEWcn1-JFxwcRvNBFtWLwtkg,"R. Cidade Ecológica, 74 - Edson Queiroz, Fortaleza - CE, 60812-450",N/A,N/A,+55 85 98776-6973,4.7,53,-3.7715104,-38.474087999999995,ceará
1,Papicu Celulares,,ChIJRyZJJAdHxwcReqM8y1tIEQU,"R. Prof. Sila Ribeiro, 782 - Papicu, Fortaleza - CE, 60175-135",N/A,N/A,+55 85 98500-1294,,,-3.7392331,-38.4803637,ceará
3,Loja de Celular Kingdom Store,,ChIJcQdEK7JNxwcRfwLN5VK3zG0,"Av. Eng. Santana Jr., 999 - Papicu, Fortaleza - CE, 60175-657",N/A,N/A,+55 85 3077-3336,5,3,-3.736821,-38.4823756,ceará
6,"085 Phone - Celulares, Fones Bluetooth, Assistência Técnica em Fortaleza",https://linktr.ee/085phone,ChIJS4SWsI5HxwcRPEpqIuZa0Wg,"Av. Engenheiro Alberto Sá, 153 - Loja 03 - Vicente Pinzon, Fortaleza - CE, 60181-175",N/A,N/A,+55 85 98903-6590,5,30,-3.7331482,-38.480145,ceará
9,Starnew Celulares,,ChIJ0-5006xJxwcR-mrTRu82uIs,"R. Perboyre e Silva, 157 - Loja 36, 43 - Centro, Fortaleza - CE, 60055-110",N/A,N/A,+55 85 98597-5362,4.5,86,-3.7286265,-38.5272432,ceará
10,Nordeste Celular Import Oficial,https://www.facebook.com/nordestecelular.oficial/,ChIJ3YZfuoBJxwcRn29zSuHzAWs,"R. Pedro I, 715 - Centro, Fortaleza - CE, 60035-100",N/A,N/A,,4.2,42,-3.7306999999999997,-38.530823,ceará
12,Centro Cell - Fortaleza,https://contate.me/centrocell-fortaleza02,ChIJZeT7XtFJxwcRcaoXfPho8As,"R. Gen. Sampaio, 889 - centro - Centro, Fortaleza - CE, 60020-030",N/A,N/A,+55 85 99653-3685,4.5,55,-3.726482,-38.530443999999996,ceará
13,iTouch Fortaleza - Assistência técnica para Celulares,http://wa.me/5585999501646,ChIJg8BLI2lJxwcR3vlsDOJ3mck,"R. Vicente Leite, 884 - loja 868 - Meireles, Fortaleza - CE, 60170-151",N/A,N/A,+55 85 99950-1646,4.9,22,-3.7338769,-38.4944972,ceará
14,Kalunga - Shopping Iguatemi Fortaleza,https://www.kalunga.com.br/,ChIJb9bJ9aNIxwcR72m8LggX-rc,"Avenida Washington Soares, Shopping Iguatemi, 85 - Loja 797 - Edson Queiroz, Fortaleza - CE, 60811-341",N/A,N/A,+55 11 3346-9966,4.4,3367,-3.7549732,-38.4895463,ceará
15,MV celular,,ChIJmw3eU4hIxwcRRRUqTmcPhuQ,"R. Barbosa de Freitas, 1415 - Aldeota, Fortaleza - CE, 60170-020",N/A,N/A,+55 85 3261-1400,4,14,-3.7382963,-38.4975162,ceará
17,Homem do Celular,,ChIJrRTxdQBJxwcRrUhVFaGnnzQ,"R. Maria Tomásia, 609a - Aldeota, Fortaleza - CE, 60150-170",N/A,N/A,,,,-3.7355937,-38.4965258,ceará
19,Baratão do Celular,,ChIJVfRxQ4hIxwcRdOFQW7qZjs4,"Avenida Santos Dumont, 3130 Shopping Center Um, Loja: 207 - Aldeota, Fortaleza - CE, 60177-415",N/A,N/A,+55 85 3264-2888,2.4,19,-3.7370460999999997,-38.4972454,ceará
20,"Best Cases e Acessórios - Acessórios para celulares e tablets, cases, carregadores, fones de ouvido, smartwatch e eletrônicos",https://instagram.com/bestcases.acessorios?igshid=OGQ5ZDc2ODk2ZA==,ChIJo-9gVXxJxwcR9JxE_RQBDKQ,"R. Costa Barros, 2000 - Loja 05 - Aldeota, Fortaleza - CE, 60160-281",N/A,N/A,+55 85 99805-6568,5,10,-3.7321660999999997,-38.5064444,ceará
1,DD CELL ASSISTÊNCIA TÉCNICA ESPECIALIZADA,https://instagram.com/ddcell_tecnica_assistencia?igshid=ZDdkNTZiNTM=,ChIJ5c7ZBWlLxwcRWoucXChj4i8,"R. Beta, 188 - Vila Velha, Fortaleza - CE, 60349-130",N/A,N/A,+55 85 99804-2062,5,11,-3.7136144,-38.6017011,ceará
5,K&l Cell Assistencia e acessorios,https://www.instagram.com/klcell7/,ChIJBVig6ee1wAcRewbh_wTs30M,"R. Quinze de Outubro, 80A - Centro, Caucaia - CE, 61600-170",N/A,N/A,+55 85 98593-9456,4.7,27,-3.7338779,-38.6596674,ceará
8,Digitec Assistência Técnica,,ChIJMaKUaYy1wAcRahlNOQzM2O8,"R. Ananias Alexandre, 211 - Curicaca, Caucaia - CE, 61601-615",N/A,N/A,+55 85 98789-2747,4.6,20,-3.7164626999999997,-38.6594571,ceará
15,Mario Cell,,ChIJIWfuf49LxwcRfxm9Wxy0418,"Rua Coronel Correia, s/n - Centro, Caucaia - CE, 61600-040",N/A,N/A,+55 85 98564-8242,5,1,-3.7332663999999998,-38.6452185,ceará
16,JV Conserto de Celular,,ChIJtbThlZdLxwcRC72sLp0A5CI,"R. São Francisco, 118 - I - Itambé, Caucaia - CE, 61602-680",N/A,N/A,+55 85 98174-8612,4.7,12,-3.7289231999999997,-38.6512762,ceará
17,Expert Informatica,,ChIJRcyAAtC0wAcRc0Dwsh1OGTw,"Rua Coronel Correia 2104 Shopping Salim, 2104 Loja, Caucaia - CE, 61600-004",N/A,N/A,+55 85 98703-2911,4.6,255,-3.7351091999999997,-38.6593995,ceará
20,BoxCell Celular I Assistência Técnica e Acessórios,,ChIJm5Bnv6xLxwcRUYBv-HcKX0U,"Av. Washington Luiz, 641 - Vila Velha, Fortaleza - CE, 60340-670",N/A,N/A,+55 85 98844-0348,4.9,26,-3.716227,-38.5945166,ceará
8,Assesoltec,https://www.instagram.com/assesoltec/,ChIJtQFS9Qm1wAcR7wEoWlZKB94,"Rua Jacobe Gomes, 30 Mercado, R. Jacobe Gomes, 30 - Box 197 - Centro, Caucaia - CE, 61600-170",N/A,N/A,+55 85 98111-2642,5,12,-3.7346662,-38.658361299999996,ceará
9,Milcases assistência e acessórios,https://www.instagram.com/milcases_/,ChIJv90r2a61wAcR8P1Vi9CmYvw,"Av. Juaci Sampaio Pontes, 800-894 - Centro, Caucaia - CE, 61600-150",N/A,N/A,+55 85 98161-7170,,,-3.7354463,-38.6579669,ceará
11,"HC3 - Comércio & Serviços - Gráfica Rápida, Papelaria e Acessórios para Celular",,ChIJy0I_aJ61wAcRtAN8_uYTfb4,"R. Davi Henrique, 22 - I - Itambé, Caucaia - CE, 61602-235",N/A,N/A,+55 85 98994-3529,5,33,-3.7269199,-38.6538316,ceará
13,Cavalcante IPhones,https://instagram.com/cavalcante_iphones?igshid=YmMyMTA2M2Y=,ChIJL6J5OFG1wAcRVTj9haNSQ_k,"Av. Edson da Mota Correa, 918 - sala 13 - Centro, Caucaia - CE, 61600-040",N/A,N/A,+55 85 99792-9757,1,6,-3.7343477,-38.6584544,ceará
16,JM ASSISTÊNCIA TECNICA,https://jmassistenciatecnica.negocio.site/?utm_source=gmb&utm_medium=referral,ChIJSUlEyQG1wAcRLUtyOEEvuJE,"Av. Juaci Sampaio Pontes - Centro, Caucaia - CE, 61600-000",N/A,N/A,+55 85 98549-9923,3,2,-3.7348893,-38.657993399999995,ceará
17,Washington Cell,,ChIJUQqThgNLxwcRt2oEZ2a2ZFQ,"Av. Mozart Pinheiro de Lucena, 2654 - Vila Velha, Fortaleza - CE, 60352-642",N/A,N/A,+55 85 98691-0640,5,4,-3.7275384999999996,-38.5985112,ceará
18,Magazine Luiza,https://lojas.magazineluiza.com.br/filiais/761?utm_source=google&utm_medium=maps&utm_campaign=gmb,ChIJN4LO5tG0wAcRRQzptHjfdm4,"Rua Coronel Correia, 2102 - Centro, Caucaia - CE, 61600-004",N/A,N/A,+55 85 98587-3714,4.2,828,-3.7353235,-38.6594224,ceará
9,Bilscell,,ChIJ3xRZif9LxwcRK20aU3djNWU,"R. Carnaubal, 1097 - Jardim Guanabara, Fortaleza - CE, 60346-264",N/A,N/A,+55 85 99974-0635,5,1,-3.7221935999999998,-38.587959399999995,ceará
10,Luck Cell,,ChIJVVmbNDZKxwcR5VX2pesNtEU,"R. Profa. Maria Clara, 1067 - Jardim Guanabara, Fortaleza - CE, 60346-218",N/A,N/A,+55 85 98885-8880,3.4,17,-3.7250978999999997,-38.5889786,ceará
11,DaniCell,,ChIJnRAf7CpLxwcRUjIjx4nGiPg,"Av. Mozart Pinheiro de Lucena, 1592 E - Vila Velha, Fortaleza - CE, 60347-440",N/A,N/A,+55 85 99266-2359,4.9,67,-3.7165521,-38.5953671,ceará
12,Chip Cell,,ChIJwfvQ2UNKxwcRTiI3IUXcoOM,"Av. Mozart Pinheiro de Lucena, 1660 - Vila Velha, Fortaleza - CE, 60347-445",N/A,N/A,+55 85 3035-8570,4.1,9,-3.7171288999999996,-38.595570599999995,ceará
13,IVANA CELL,,ChIJRdKYKkJKxwcRRefZQLPsP-c,"Av. Mozart Pinheiro de Lucena, 1592 - Vila Velha, Fortaleza - CE, 60347-452",N/A,N/A,+55 85 99254-8344,5,3,-3.7165220999999997,-38.5953079,ceará
14,Mayara Cell,,ChIJ3y-RC0pKxwcRA3nJoS_-6zg,"R. Carlos Araújo, 90 - Olavo Oliveira, Fortaleza - CE, 60351-010",N/A,N/A,,4.6,11,-3.7278369,-38.5903062,ceará
15,RAILSON CELL,http://facebook.com/railsoncell,ChIJF3rH5T5KxwcRMpctUlwVJgA,"R. Conselheiro Lafayette, 957B - Jardim Iracema, Fortaleza - CE, 60347-110",N/A,N/A,+55 85 98857-1712,5,3,-3.7176795,-38.5869006,ceará
16,Jefferson Cell,,ChIJC9oO51hLxwcRLykrpAmM6qg,"Av. Cel. Carvalho, 1146G - Barra do Ceará, Fortaleza - CE, 60346-164",N/A,N/A,+55 85 98949-0134,5,6,-3.7125367,-38.5893303,ceará
17,AlehCases - Assistência Técnica e Acessórios,https://www.instagram.com/alehcases/,ChIJmQT8G6lLxwcRJqNqtUpG2PE,"R. Astrogildo Fontoura, 170 - Barra do Ceará, Fortaleza - CE, 60330-330",N/A,N/A,+55 85 98788-9434,5,1,-3.71228,-38.580476,ceará
20,Casa do sapateiro,,ChIJgXPhOI1LxwcR7OQlxT8Nb3c,"Rua Carlos Walravem, 451 - Jardim Guanabara, Fortaleza - CE, 60346-672",N/A,N/A,+55 85 98218-7754,5,9,-3.7195958,-38.592871699999996,ceará
2,Samsung Experience Store,https://www.samsung.com/br/campaign/storecontacts/,ChIJ3Ugi9H5JxwcRlREKNWjHlOc,"Av. Bezerra de Menezes, 2450 - 1º Piso, loja 17 - Sao Geraldo, Fortaleza - CE, 60325-002",N/A,N/A,+55 85 99115-2560,4.3,681,-3.7350539,-38.566099,ceará
4,Torres Cell - Assistência Técnica Especializada em Celulares,https://lift.bio/f1p5h4,ChIJnQ6LDtNJxwcRNg098V5g_hY,"Av. Dr. Theberge, 2404 - Pres. Kennedy, Fortaleza - CE, 60355-000",N/A,N/A,+55 85 98413-7001,5,55,-3.7228502999999997,-38.567810699999995,ceará
6,Mota Games & Cell,,ChIJfXQZyUdKxwcRCrdkzJ9_EhQ,"Rua George Cerqueira Cavalcante, 1181 - Jardim Guanabara, Fortaleza - CE, 60346-163",N/A,N/A,+55 85 98624-4714,5,17,-3.7219962,-38.5922863,ceará
7,Andrecell consertos e acessorios,,ChIJ_1Z-3QdKxwcRUzRSpmPEC3k,"R. Vento Leste, 149 - Barra do Ceará, Fortaleza - CE, 60332-380",N/A,N/A,+55 85 98777-8848,4.7,23,-3.7001964999999997,-38.5790933,ceará
9,C3cell Tercell Celulares,https://www.instagram.com/c3cell_tercell/?igshid=OGQ2MjdiOTE=,ChIJQVAW9wRKxwcRkLThVIgyVZs,"Av. Pres. Castelo Branco, 5011 - Barra do Ceará, Fortaleza - CE, 60312-060",N/A,N/A,+55 85 98747-4184,4.5,21,-3.7053787,-38.5766809,ceará
10,America Phone North Shopping Loja de Celular e Assistência Técnica Mobile,https://www.americaphone.com.br/,ChIJsRb9WjlNxwcRbDYo8RR4uG8,"Av. Bezerra de Menezes, 2450 - Pres. Kennedy, Fortaleza - CE, 60325-902",N/A,N/A,+55 85 99859-8929,4.6,18,-3.7358008,-38.566584299999995,ceará
11,Center Cell,https://www.instagram.com/centercellbr/?hl=pt-br,ChIJhysPtFNJxwcRGM6Uy1bBKXo,"Av. Bezerra de Menezes, 2520 - São Gerardo, Fortaleza - CE, 60325-002",N/A,N/A,+55 85 99653-7005,4.8,44,-3.7359676,-38.5672636,ceará
13,Manutenção de celulares,,ChIJad_1yk9KxwcRQ9G2cVnbTiE,"Av. Independência, 2180 - Quintino Cunha, Fortaleza - CE, 60345-530",N/A,N/A,+55 85 98871-6827,1,1,-3.7242789,-38.599345299999996,ceará
14,DG Celulares,,ChIJ-VIimhNJxwcRktqeplAbWVQ,"Av. Ten. Lisboa, 3255 - Bairro Ellery, Fortaleza - CE, 60310-195",N/A,N/A,+55 85 3223-9639,5,1,-3.7205209999999997,-38.564457,ceará
16,Panda Cell Imports,,ChIJ8TLCOJdPxwcREYAGemL3TTA,"R. Demétrio Menezes, 3573 - Antônio Bezerra, Fortaleza - CE, 60356-552",N/A,N/A,+55 85 3212-0611,4.3,16,-3.7346402999999997,-38.5840745,ceará
19,Americanas,https://www.americanas.com.br/lojas-proximas/33014556000196/1323?ordenacao=topSelling&utm_medium=meunegocio&utm_source=google&utm_campaign=marca:acom;midia:meunegocio;formato:00;subformato:00;idcampanha:pacotelocal&epar=mn_00_00_go_pacotelocal,ChIJyXYCAIdJxwcRYAaDKRR3_Bo,"Av. Srg. Hermínio Sampaio, 03100 - Pres. Kennedy, Fortaleza - CE, 60355-512",N/A,N/A,,4.3,527,-3.7268432,-38.5682176,ceará
20,Jhonatan cell,https://instagram.com/jhonatanvariedades_?igshid=YmMyMTA2M2Y=,ChIJn8pu7QFLxwcRLuwhzgT5g30,"Rua:rosinha Sampaio, 964 - Quintino Cunha, Fortaleza - CE, 60346-251",N/A,N/A,+55 85 99113-3166,,,-3.7266725,-38.587389099999996,ceará
2,Smartphone Fortaleza,,ChIJv44rTA1JxwcRMtSSt3K_0rY,"R. Sen. Pompeu, 814 - Centro, Fortaleza - CE, 60025-000",N/A,N/A,+55 85 2180-6703,2.9,8,-3.7257692999999996,-38.5295954,ceará
4,Play Cell - Fortaleza,https://playcellfortaleza.com.br/,ChIJV5EiEbJJxwcRW27JsRS_h40,"R 24 de Maio, 355 - Centro, Fortaleza - CE, 60020-000",N/A,N/A,+55 85 99232-8282,4.4,448,-3.7248938999999996,-38.531177799999995,ceará
5,Facility Eletrônicos e Variedades,http://instagram.com/facilityelectronics,ChIJ-wqUTu5RxwcRh8QS_mB_U98,"Centro Fashion Fortaleza Setor verde - R. Castro e Silva, 1132 - Jacarecanga, Fortaleza - CE, 60010-280",N/A,N/A,+55 85 99228-6548,5,8,-3.7210639999999997,-38.535421,ceará
9,Alcione Cell,https://api.whatsapp.com/send?phone=5585984046433&text=Seja+bem-vindo!+Em+que+podemos+lhe+ajudar+?%EF%BF%BD%EF%BF%BD,ChIJl26gFIxLxwcROSaYiWMHibY,"R. Sen. Pompeu, 856 - Loja 6 - Centro, Fortaleza - CE, 60025-000",N/A,N/A,+55 85 98404-6433,4.9,189,-3.7260304,-38.530305399999996,ceará
11,PPCell,,ChIJ6d0iEbJJxwcRED-fdq-rYV8,"R 24 de Maio, 411 - Loja 124 - Centro, Fortaleza - CE, 60020-000",N/A,N/A,+55 85 98800-8872,4.4,779,-3.7252715,-38.5314264,ceará
12,Casa do Celular,http://www.casadocelular.com.br/,ChIJV1csVKxJxwcRBIYhcLc91Hg,"R. Sen. Pompeu, 1099 - Centro, Fortaleza - CE, 60020-030",N/A,N/A,+55 85 3038-1951,3.2,125,-3.7285511999999996,-38.5295476,ceará
13,Padrão MR Celulares,https://www.instagram.com/padrao.mr.celulares/,ChIJ4UPqtm9JxwcRfPiGnLHAdw0,"R. Pedro I, 844 - Centro, Fortaleza - CE, 60035-100",N/A,N/A,+55 85 99621-5823,5,14,-3.7299860999999996,-38.5320987,ceará
14,Jr Tec Cell,,ChIJn3Pa_JlJxwcRkz3vjOIc5Mc,"Av. Srg. Hermínio Sampaio, 1357 - Monte Castelo, Fortaleza - CE, 60320-105",N/A,N/A,+55 85 99623-6732,5,50,-3.7250267999999997,-38.5526056,ceará
15,ikki Store Monte Castelo,https://www.ikkistore.com.br/,ChIJ2VJoF2tJxwcR4EXUIMJSRdw,"R. Padre Anchieta, 581 - Monte Castelo, Fortaleza - CE, 60325-520",N/A,N/A,+55 85 98859-0293,5,513,-3.7250587,-38.5509476,ceará
16,JP CELULARES,,ChIJAyWJqpZJxwcRqO3ZjWtpu0g,"Av. Bezerra de Menezes, 1400 - Farias Brito, Fortaleza - CE, 60325-005",N/A,N/A,+55 85 98686-6296,5,1,-3.7338733,-38.557378,ceará
18,Rey Cell,https://instagram.com/lojareycell?igshid=OGQ5ZDc2ODk2ZA==,ChIJ4SYjEbJJxwcRfVP7_ZACNZY,"Loja 05 - Mercadão Shopping, R 24 de Maio, 411 - Centro, Fortaleza - CE, 60020-000",N/A,N/A,+55 85 98859-5370,4.9,23,-3.7253656,-38.5314373,ceará
1,Top Cell,,ChIJJbQv0fZJxwcRrjim1KOzTfM,"R 24 de Maio, 336 - Centro, Fortaleza - CE, 60020-000",N/A,N/A,+55 85 98504-3163,4.6,31,-3.7246574,-38.5313492,ceará
2,TS CELL,,ChIJjTZTj11JxwcRv7HYhIEHj64,"Avenida Imperador, 546 - Centro, Fortaleza - CE, 60015-050",N/A,N/A,+55 85 99154-7278,5,2,-3.7257417999999998,-38.534994,ceará
3,Regis inter Capas,,ChIJlaBCTbJJxwcRJzM2Dbkw18Q,"R. Sen. Alencar, 524 - Centro, Fortaleza - CE, 60030-050",N/A,N/A,+55 85 3121-1704,4.5,149,-3.7239408999999997,-38.5305385,ceará
4,Star Cases | Capas para Celulares | Centro Fashion Fortaleza,http://www.instagram.com/StarCasesOficial,ChIJc64O1r5JxwcRYFzfRfCUIj0,"Centro Fashion Fortaleza Setor Azul - Av. Filomeno Gomes, Rua Governador Sampaio, 430 - Loja 1219 - Jacarecanga, Fortaleza - CE, 60010-280",N/A,N/A,+55 85 98743-4710,4.2,25,-3.719328,-38.543138,ceará
5,Leandro Cell,,ChIJzaU6EbJJxwcRS_a8yr5kn4E,"R 24 de Maio, 411 - Centro, Fortaleza - CE, 60020-000",N/A,N/A,+55 85 3046-5427,3.8,62,-3.7253038,-38.5309849,ceará
7,Techcell,,ChIJ__-7mjBPxwcR0-H0mmkxwr4,"Avenida Imperador, 546 - Centro, Fortaleza - CE, 60015-050",N/A,N/A,,4.5,2,-3.725924,-38.5347291,ceará
8,TECH FIX Assistência Técnica Celular,,ChIJZUohUI5JxwcRrdREOgnyNUI,"Avenida Imperador, 546 Rua F8, BOX 1430 - Centro, Fortaleza - CE, 60015-050",N/A,N/A,+55 85 98892-3566,5,3,-3.725924,-38.5347291,ceará
9,Rei do Reparo - Conserto de Celulares iPhone iPad,http://www.reidoreparofortaleza.com.br/,ChIJ9yWs_9BJxwcR8buNbU7V7RA,"Rua Barão do Rio Branco 1190 Shopping Camelo 02, loja 17 - Centro, Fortaleza - CE, 60025-060",N/A,N/A,,5,148,-3.7286979999999996,-38.529162,ceará
10,Assistência Técnica de Celular - Ligeirinho Cell ,https://instagram.com/ligeirinhocell_?igshid=YmMyMTA2M2Y=,ChIJmRE95cJJxwcRdJPkwr-MW1I,"Condomínio Shopping Lisbonense - R Pedro Borges, 143 - Loja 06 - Centro, Fortaleza - CE, 60055-110",N/A,N/A,+55 85 98777-5441,5,795,-3.728801,-38.527226399999996,ceará
13,Evandro Cell,,ChIJwSFgT6NJxwcR1f7SesH_3jQ,"Rua Solon Pinheiro, 96 - Centro, Fortaleza - CE, 60050-040",N/A,N/A,+55 85 98724-1184,5,5,-3.7312887999999997,-38.5267459,ceará
16,Vilaci Cell,,ChIJ8xgjEbJJxwcR3PloOy5xoeU,"R 24 de Maio, 411 - Loja 142 e 149 - Centro, Fortaleza - CE, 60310-330",N/A,N/A,+55 85 3044-4231,4.2,5,-3.7253466,-38.530854399999996,ceará
17,LogyCell Tech - Assistência técnica,https://linktr.ee/Logy_celltech,ChIJ4TCHc5VJxwcRaNgBtEkkcm8,"Shopping Mercadão - R 24 de Maio, 411 - Loja 70 - Centro, Fortaleza - CE, 60020-030",N/A,N/A,+55 85 98965-5433,5,82,-3.7253466,-38.530854399999996,ceará
18,Digital cell troca de vidro celular,https://instagram.com/lucasdigitalcelll?igshid=Yjk4NWM2ZWVkMw==,ChIJL89TgVxJxwcRu75N6G9yfnY,"Avenida Imperador, 546 - Box F4 1214 - Centro, Fortaleza - CE, 60015-050",N/A,N/A,,5,19,-3.7258723,-38.534769399999995,ceará
19,Loja PlayUP - Acessórios para Celular | Informatica | Utensilios | Varejo e Atacado,,ChIJXc7aCTJJxwcRwaF8PKDJumQ,"R. Gen. Sampaio, 724 - Centro, Fortaleza - CE, 60020-030",N/A,N/A,+55 85 99423-5331,4.5,2,-3.7248675999999996,-38.5303898,ceará
2,F5 Celular e Informática,,ChIJMb_8adRJxwcR2SJy4vWUfaw,"R. Cruzeiro do Sul, 97 - Álvaro Weyne, Fortaleza - CE, 60335-190",N/A,N/A,+55 85 99787-4229,4.9,118,-3.7143397,-38.558683699999996,ceará
8,PROCell BATERIA XIAOMI Original REALME IPHONE Assistência Parquelândia,,ChIJb2pqrylJxwcR6EhBjrUAHTo,"Av. Jovita Feitosa, 2440 - Lj 4 - Parquelândia, Fortaleza - CE, 60455-410",N/A,N/A,+55 85 99119-5768,4.6,31,-3.740205,-38.5592799,ceará
18,PH Celulares,,ChIJjY-WmK5JxwcRHpAB9nqRwp8,"Shopping Center Maio, Loja 11, R 24 de Maio, 822 - Centro, Fortaleza - CE, 60020-001",N/A,N/A,+55 85 98716-1641,1,1,-3.7288503,-38.5328989,ceará
4,King Place,,ChIJ9T_TzHdIxwcRGHIMkWcJ-BY,"Av. da Abolição, 3790 - Loja 03 - Mucuripe, Fortaleza - CE, 60165-081",N/A,N/A,+55 85 3037-7303,4.2,12,-3.7263013999999997,-38.485839299999995,ceará
5,"GNG Mobile: Assistência Técnica, Conserto Iphone e Troca de Tela, Fortaleza",https://gngcare.com.br/,ChIJY7PiJmNIxwcR3YGYzxOaLYg,"Av. Dom Luís, 300 - Loja 254 - Meireles, Fortaleza - CE, 60160-230",N/A,N/A,+55 85 98121-9898,4.6,82,-3.7331114,-38.498953199999995,ceará
9,"Chelly Acessórios: Xerox, impressão, Foto 3x4, Plastificação, Acessórios para celular, informatica e games",,ChIJgXlHkFRJxwcRKGkvYgkeIC8,"Rua Vereador Ademar Arruda, 2 - Centro, Fortaleza - CE, 60110-025",N/A,N/A,+55 85 99953-5907,4.9,30,-3.7244289999999998,-38.5178959,ceará
11,R3 Celulares,,ChIJHyL7KFxIxwcRs0JXsrv6xdI,"R. Costa Barros, 1669 - Aldeota, Fortaleza - CE, 60160-281",N/A,N/A,+55 85 3037-9382,4.2,26,-3.7309655999999998,-38.5091952,ceará
13,Youp - Loja de Celulares e Acessórios,https://www.youpstore.com.br/,ChIJ2buwTzhJxwcRnx1BYAr7fcA,"Av. Dom Luís, 906 - Meireles, Fortaleza - CE, 60160-230",N/A,N/A,+55 85 99796-9855,4.9,29,-3.7347671,-38.4933282,ceará
14,Conserto de iPhone e celular a DOMICILIO,https://wa.me/5585999905200?text=Ol%C3%A1%20vim%20do%20Google%20,ChIJU3T_LwBJxwcRev3VLJF9spA,"R. Castro Monte, 165 - Varjota, Fortaleza - CE, 60165-075",N/A,N/A,+55 85 99990-5200,,,-3.7298085999999997,-38.4861728,ceará
15,FERRARO CELL ASSISTENCIA TECNICA,,ChIJLx4HvpJJxwcRMu12sv-DeaM,"Av. Santos Dumont, 1740 - LOJA 05 - Aldeota, Fortaleza - CE, 60150-161",N/A,N/A,+55 85 99641-8207,5,11,-3.7332034,-38.5083803,ceará
16,tonycell,https://instagram.com/tonycell_330?igshid=MzNlNGNkZWQ4Mg==,ChIJMUDUluJJxwcRJKqBkTq78Nk,"R. Nunes Valente, 368 - Meireles, Fortaleza - CE, 60125-070",N/A,N/A,+55 85 98854-0094,5,1,-3.7281427,-38.5013084,ceará
19,Cell Express,https://www.centerumshopping.com.br/cell-express/,ChIJAdCZaohIxwcRSkObbBHq0Og,"Center Um, Loja 16, Av. Santos Dumont, 3130 - Aldeota, Fortaleza - CE, 60150-161",N/A,N/A,+55 85 3025-5657,4.7,177,-3.7373203,-38.4970923,ceará
1,Loja Vivo,https://vivo.com.br/para-voce/ajuda/mais-ajuda/encontre-uma-loja?_gl=1*pwmg40*_gcl_aw*R0NMLjE3MzI1MjU4MzMuRUFJYUlRb2JDaE1Jek15VjBkdjFpUU1WMDJ6ZEFoMTBNU0plRUFFWUFTQUFFZ0lsWXZEX0J3RQ..*_gcl_dc*R0NMLjE3MzI1MjU4MzMuQ0t6LV90ZmI5WWtERlRWSzNRSWQxUUVEY1E.*_gcl_au*MTUzOTUwNjgxNS4xNzMxNjIxOTE3*_ga*MjEyMzgwODk5Mi4xNzMxNjIxOTI5*_ga_JWH50P3VES*MTczMjkwMzAzNC40LjEuMTczMjkwMzA4OS41LjAuMA,ChIJZ1yyVPpJxwcRltCuIzXgW44,"Av. Dom Luís, 780 - Aldeota, Fortaleza - CE, 60160-196",N/A,N/A,+55 800 100 1011,3.5,49,-3.7344019999999998,-38.4943824,ceará
3,Smartphone Service,http://shoppingdelpaseo.com.br/,ChIJWySRGIhIxwcRRH0KMJ98aSs,"Av. Santos Dumont, 3131 - Aldeota, Fortaleza - CE, 60150-162",N/A,N/A,+55 85 3021-1055,4.3,7,-3.7362268,-38.4967651,ceará
5,iMuky Assistência Técnica,https://www.instagram.com/imuky_/,ChIJFT8qfDhHxwcR5Ho9qccxyCI,"Av. Eng. Santana Jr., 699 - Cocó, Fortaleza - CE, 60175-657",N/A,N/A,+55 85 99266-3006,4.9,63,-3.7354422,-38.481622699999996,ceará
6,AiLoveTech,,ChIJTzNFifJJxwcRmI6sZk7B5Fg,"Aldeota, Fortaleza - CE, 60160-230",N/A,N/A,+55 85 99640-4043,5,26,-3.7340769,-38.4950116,ceará
8,Americanas Express,https://www.americanas.com.br/lojas-proximas/33014556000196/5469?ordenacao=topSelling&utm_medium=meunegocio&utm_source=google&utm_campaign=marca:acom;midia:meunegocio;formato:00;subformato:00;idcampanha:pacotelocal&epar=mn_00_00_go_pacotelocal,ChIJh4RoMiJJxwcRUCNqpTJtvt4,"Av. Monsenhor Tabosa, 634 - Centro, Fortaleza - CE, 60165-010",N/A,N/A,,4,80,-3.724326,-38.5136091,ceará
9,multitech celulares e variedades,,ChIJwxr6uPdHxwcR4I4zZGngs-w,"R. Juvêncio Vasconcelos, 95 - Mucuripe, Fortaleza - CE, 60175-350",N/A,N/A,+55 85 98887-7652,4,2,-3.7242100999999996,-38.4807774,ceará
11,"Loja Oi centro, Fortaleza",https://www.oi.com.br/,ChIJRQ-J52JJxwcRJDuZgoydFpA,"Av. Monsenhor Tabosa, 498 - Centro, Fortaleza - CE, 60110-010",N/A,N/A,+55 85 99105-8686,3.8,17,-3.7239939,-38.51482,ceará
