Position,Title,Link,Place ID,Address,City,State,Phone,Rating,Reviews,Latitude,Longitude,Estado
1,Ad Celulares Assistência Técnica,,ChIJkREKHz2a9gcRmKRycFVLAUo,"Av. 29 de Dezembro, 230 - Cidade Olímpica, São Luís - MA, 65058-508",N/A,N/A,+55 98 98912-4872,5,315,-2.5860781999999998,-44.182789799999995,maranhão
2,Casa do Celular - Rio Anil Shopping,http://www.casadocelular.com.br/,ChIJ-8dZexmR9gcR1KUkafVArdY,"Rei Da França - R. São Luís, 8 - Turu, São Luís - MA, 65065-470",N/A,N/A,+55 98 98550-1107,4.2,37,-2.5335918,-44.2250917,maranhão
3,AD CELULARES,,ChIJ1yxM6WCb9gcROufqOSB8-8A,"AD CELULARES - Alameda Imperatriz, 46 - Jd Tropical I, São José de Ribamar - MA, 65110-000",N/A,N/A,+55 98 98912-4872,5,402,-2.5750477,-44.1860372,maranhão
4,Brava Premium - Acessórios para Celular,,ChIJyZlSPQCP9gcRddam4NiOEF4,"Av. Daniel de La Touche, 987 - Bequimão, São Luís - MA, 65074-115",N/A,N/A,+55 98 92001-5780,5,4,-2.5274136,-44.255304699999996,maranhão
5,Extracell Celulares,https://www.instagram.com/extracellassistec?igsh=a2NreTI2dXlkdXdn,ChIJFXNj4u-J9gcRMrQ8WOD_ov4,"R. Nicarágua, 7 - Anjo da Guarda, São Luís - MA, 65085-294",N/A,N/A,+55 98 98708-5331,5,2,-2.5639711,-44.3329701,maranhão
6,Paris Celular,https://instagram.com/pariscelular?utm_medium=copy_link,ChIJAVEFegKR9gcReyGrBntV108,"R. Pres. Lula - Anil, São Luís - MA, 65045-380",N/A,N/A,+55 98 98263-7002,5,11,-2.5534700999999997,-44.244412,maranhão
7,Soares Júnior Assistência Em Celulares,http://juniorcell.e-com.club/#sx,ChIJAwcPfh-Q9gcRXC7GUoaGYK8,"Av. Edson Brandão, 16 - Cutim, São Luís - MA, 65045-380",N/A,N/A,+55 98 98863-0082,5,1,-2.5525835999999997,-44.2452201,maranhão
8,Mundo do Celular,,ChIJUcsyIVKQ9gcRVkCmNE0qOKA,"Av. João Pessoa, 358 - João Paulo, São Luís - MA, 65040-000",N/A,N/A,+55 98 3225-6250,4,53,-2.5483295,-44.2668457,maranhão
9,POP CELL CELULARES,,ChIJaWAuoe2R9gcR-gkAaVdEk4c,"Feira do São Bernardo no n54 - Ipem São Cristóvão, São Luís - MA, 65070-900",N/A,N/A,+55 98 98839-3201,4.9,11,-2.5658993999999997,-44.217928699999995,maranhão
10,Jhon Cell,,ChIJESolAACD9gcRXEJDjuZJIdQ,"Nova República, São Luís - MA, 65090-575",N/A,N/A,+55 98 98777-8320,5,2,-2.6435103,-44.2773168,maranhão
11,SOCORRISTA DO CELULAR,,ChIJ-dmoG0yM9gcRF7N4VBhmp5A,"R. de Santa Rita, número 09 - Centro, São Luís - MA, 65015-580",N/A,N/A,+55 98 98212-7774,5,1,-2.5334098,-44.2974566,maranhão
12,Casa Do Celular - São Luiz,http://www.casadocelular.com.br/,ChIJAfWj2SeP9gcRIqNnMrQrULU,"R. Oswaldo Cruz, 461 - Centro, São Luís - MA, 65020-970",N/A,N/A,+55 98 98461-7088,4,62,-2.5306183,-44.299327299999995,maranhão
13,Ilha do Celular,,ChIJy8pHUsKP9gcRyXC8VA_pE8I,"R. Sete de Setembro - Centro, São Luís - MA, 65010-230",N/A,N/A,+55 98 99213-7155,5,1,-2.5317523,-44.301039599999996,maranhão
14,Casa do Celular - São Luis 1,http://www.casadocelular.com.br/,ChIJpUNt6COP9gcRh3zh7VfQ_Q0,"R. Oswaldo Cruz, 589 - Centro, São Luís - MA, 65020-250",N/A,N/A,+55 98 98736-5274,3.7,27,-2.5306433,-44.2982552,maranhão
15,"Dinho Celular Consertos,pecas E Acessorios",,ChIJr5qhYlWF9gcR1xZE-NZFwjo,"Av. Sarney Filho, sn - Vila Conceição (Coroadinho), São Luís - MA",N/A,N/A,+55 98 98857-0765,5,1,-2.5708615,-44.2642034,maranhão
16,Celular & Cia,,ChIJwzBArFGQ9gcR4jb2DiduwNo,"Av. Jerônimo de Albuquerque, 2 B - Cohab Anil III, São Luís - MA, 65050-210",N/A,N/A,+55 98 99112-2346,3.6,129,-2.5445329,-44.217465499999996,maranhão
17,"Nagem Shopping da Ilha: Celulares, Eletros, Games, Notebooks, São Luís",https://www.nagem.com.br/,ChIJbTl_eySO9gcR0oPfzR2Yyv0,"Av. Daniel de La Touche, 987 - Cohama, São Luís - MA, 65074-115",N/A,N/A,+55 800 080 2021,4.5,12,-2.5268888,-44.2546599,maranhão
18,Vick Vinny Variedades,,ChIJs3ZF8fiD9gcRitgbEMTQsvI,"Rua 02 quadra 01 numero 20 conjunto jatoba - Vila Maranhão, MA, 65091-029",N/A,N/A,+55 98 98846-6395,3.5,6,-2.6254199,-44.318669,maranhão
19,Turu Celulares,https://www.instagram.com/turucelulares?igsh=MWI0Y3BhMTQyeTl5YQ==,ChIJL9mAAfyT9gcR6OzZT-G0vHg,"Av. Sete, Quadra 23 - casa 23 - Jardim Eldorado, São Luís - MA, 65065-760",N/A,N/A,+55 98 98780-7003,5,1,-2.5002185999999997,-44.223135299999996,maranhão
20,POINT CELULAR,,ChIJ4x7nDqqR9gcROjgxuyxNrS8,"Rua Três, 43 - Cohab Anil I, São Luís - MA, 65052-050",N/A,N/A,+55 98 3244-3035,4.9,27,-2.543719,-44.215166499999995,maranhão
1,Jardson Celulares,,ChIJy0oKlLiP9gcRhDTpfjqphfo,"Av. João Pessoa - João Paulo, São Luís - MA, 65042-040",N/A,N/A,+55 98 98704-3847,4.8,5,-2.5468669,-44.267702299999996,maranhão
2,DD Celulares,,ChIJ6_V6mKaa9gcRjQtmOWd-Veg,"Av. Santos Dumont, 01A - São Cristovao, São Luís - MA, 66055-555",N/A,N/A,+55 98 98815-9944,4.2,16,-2.5707815,-44.2348863,maranhão
3,Hey Brothers - Celulares e Acessórios,https://www.instagram.com/hey.brothers._/,ChIJWbWlClab9gcR1K1B0mFJ_3g,"Shopping Marajó - Av. Guajajaras, Piso 01 Loja 22 - São Cristovao, São Luís - MA, 65010-000",N/A,N/A,+55 98 98833-7984,5,23,-2.5723544,-44.2346103,maranhão
4,BNA Celulares e impressões,http://wwwbnacelular.com.br/,ChIJnY_pRaGb9gcRL0ynIfbBZ3U,"R. Fé Em Deus, 20 - qd 209 128 - Jardim São Cristovão, São Luís - MA, 65055-190",N/A,N/A,+55 98 98853-0052,,,-2.5731034,-44.228249,maranhão
5,Erivan Celulares,,ChIJg-KmVKSa9gcRq5ar7292M0E,"Av. Guajajaras, 65 - São Cristovao, São Luís - MA, 65055-285",N/A,N/A,+55 98 98854-0434,4,10,-2.5722073,-44.2354073,maranhão
6,MIDIA CELL,,ChIJryaTxwKG9gcR1bnzBErTIuw,"Av. Moçambique - Anjo da Guarda, São Luís - MA, 65035-790",N/A,N/A,,,,-2.5642443,-44.332448,maranhão
7,Rn Celulares,,ChIJv_sQzeWO9gcRSX_UTufUBD4,"R. das Flôres, 285 - Centro, São Luís - MA, 65010-230",N/A,N/A,,3.8,6,-2.5300596,-44.2994929,maranhão
8,Diomar celulares,https://instagram.com/diomar_celulares,ChIJK0WnMFeP9gcRNyd-z1NfmKc,"Diomar celulares - R. Sambaíba - Pindorama, São Luís - MA, 65041-196",N/A,N/A,+55 98 98723-5412,,,-2.5611539999999997,-44.2801349,maranhão
9,Casa Do Celular,https://casadocelular.com.br/,ChIJm-ZkU3qR9gcROqGOe5kZBso,"R. 4 - Turu, São José de Ribamar - MA",N/A,N/A,+55 85 98418-1010,3.5,4,-2.5163275,-44.203171,maranhão
10,Oficina Do Celular,,ChIJ1-2Q_CSb9gcRnLRo6HZWPhw,"R. da Árvore, 62 - Vila Cascavel, São Luís - MA, 65057-647",N/A,N/A,+55 98 98808-1546,,,-2.5940711999999997,-44.2213394,maranhão
11,ADRIANA CELULAR,,ChIJDTBN36Ca9gcRHXXHRigTgJA,"Av. Guajajaras, 221 - Jardim São Cristovão, São Luís - MA, 65056-045",N/A,N/A,,,,-2.5694306,-44.232793199999996,maranhão
12,Display Celular,,ChIJMU8-f_SP9gcRuVmOk61BVt8,"R. Valdívino Castelo Branco, 12 - Vila Conceição (Coroadinho), São Luís - MA, 65041-720",N/A,N/A,,2.8,4,-2.5627047999999997,-44.2642641,maranhão
13,Narre Tech Celulares e Notebook,https://www.instagram.com/narretech.celularesslz?igsh=Y3U3Y2drbG9raGlx,ChIJOy_5uwCP9gcR_wyZPnVt-RI,"Av. Daniel de La Touche, 987 - Shopping da Ilha, São Luís - MA, 65074-115",N/A,N/A,+55 98 98179-5994,,,-2.5274136,-44.255304699999996,maranhão
14,Opção Celular,http://wa.me/+5598999947457,ChIJR7y_H5GH9gcRJxL59bMsSPg,"R. México, 5 - Anjo da Guarda, São Luís - MA, 65085-805",N/A,N/A,+55 98 99994-7457,,,-2.5639542,-44.331556299999995,maranhão
15,Clínica Do Celular,,ChIJ8aKOUOWO9gcRpHbqn5D9-aA,"Av. Silva Maia, 41 - Centro, São Luís - MA, 65020-570",N/A,N/A,+55 98 98314-2977,5,1,-2.5289433,-44.2958001,maranhão
16,CASA dos CELULARES,,ChIJaz88hCaO9gcRxx8wKx0WWII,"Av. A - Maranhão Novo, São Luís - MA, 65074-115",N/A,N/A,,1,1,-2.5280362,-44.2533502,maranhão
18,FS Celulares e Informática,https://www.instagram.com/fsinformatica_codo/?igshid=YmMyMTA2M2Y%3D,ChIJ0zlDzgWP9gcRNiU02XB2-m0,"Shopping da Ilha, Centro Empresarial - Av. Daniel de La Touche, 987 - Torre 1, 8º Andar, Sala 805 - Cohama, São Luís - MA, 65074-115",N/A,N/A,+55 98 98543-6630,4.4,86,-2.5273933,-44.2548915,maranhão
20,Mv Celulares Assistência Técnica,,ChIJcSN_q3yQ9gcR-xNCMkozoeI,"Rua Primeiro de Março - Vila Brasil, São Luís - MA, 65056-578",N/A,N/A,,4,1,-2.5612928,-44.2144635,maranhão
1,UNIVERSO CELULARES E ASSISTÊNCIA TÉCNICA,,ChIJk8umQquD9gcRMmcc4LskepA,"R. Tancredo Neves - Nova República, São Luís - MA, 65090-575",N/A,N/A,+55 98 98822-0702,,,-2.6439473,-44.2775779,maranhão
2,DSL,,ChIJo418_n2R9gcRhrgybBQn4jw,"Av. Brasil, 01 - loja C - Vila Vicente Fialho, São Luís - MA, 65070-130",N/A,N/A,+55 98 98443-9856,4.7,13,-2.5088255999999998,-44.241855799999996,maranhão
3,G5 Celular,https://instagram.com/g5celular?igshid=lwb6cmod25a7,ChIJBYlYnn-b9gcRUuIG9TUFYog,"Av. Guajajaras, 1000 - São Cristovao, São Luís - MA, 65056-045",N/A,N/A,+55 98 3303-3975,5,2,-2.5719366999999997,-44.2351933,maranhão
4,Franciel Celulares - Xiaomi - Realme - IPhone - Assistência técnica,https://www.instagram.com/francielcelulares/,ChIJy14F2WuR9gcRGl0wX2MGK-I,"Av. Contôrno Leste Oeste, 71 - Cohatrac I, São Luís - MA, 65053-770",N/A,N/A,+55 98 99994-8239,4.7,63,-2.5401582,-44.2095039,maranhão
6,Meu Celular,,ChIJfbxGIoqH9gcRm-Ui_DB67Rc,"R. Nicarágua - Anjo da Guarda, São Luís - MA, 65085-238",N/A,N/A,+55 98 98448-1266,,,-2.5640452,-44.3332437,maranhão
7,Mob Capas - Acessórios para Celular,,ChIJMdL_OAGR9gcR6OJ6vNkWUbg,"Av. Contôrno Norte, 57 - Cohatrac II, São Luís - MA, 65053-780",N/A,N/A,+55 98 98813-6365,4.6,11,-2.5367273999999997,-44.2065765,maranhão
8,Toulbert Celular,,ChIJT3DzVw2Q9gcRrY_-M2260f4,"Av. Tales Neto, 22 B - João de Deus, São Luís - MA, 65057-470",N/A,N/A,+55 98 3302-2153,4.2,22,-2.5606172,-44.2295119,maranhão
9,Bento Cell Assistência Técnica Samsung Motorola Apple Xiaomi Celular Tablet Notebook,,ChIJiZ66TVqP9gcRKrfsNqDuOxk,"Rua Oswaldo Cruz 907b Centro de - Centro, São Luís - MA, 65020-250",N/A,N/A,+55 98 98435-7052,4.5,26,-2.5307252,-44.295183699999995,maranhão
10,Sancell Celular & Tablet,,ChIJ8TsWz7CI9gcRtMGlGm4TFtc,"Anjo da Guarda, São Luís - MA, 65037-060",N/A,N/A,,,,-2.5528366,-44.331561199999996,maranhão
11,HC3 Celular e Informática,,ChIJvXeo7rmP9gcRC2F0jCtWHB4,"R. São Vicente de Paula, 345 A - João Paulo, São Luís - MA, 65040-100",N/A,N/A,+55 98 98433-7584,4.3,41,-2.5448869999999997,-44.270736,maranhão
12,CELULAR TEC - MA,,ChIJezlgQOeR9gcRuCUDJA1LbY0,"R. São Judas Tadeu - Cantinho do Céu, São Luís - MA, 65060-620",N/A,N/A,+55 98 98807-7177,5,5,-2.5229092,-44.241731699999995,maranhão
13,FARIAS CELULAR,,ChIJi5o8qsiR9gcRGKgXOtQ0UVI,"Tv. São Bernardo - Planalto Anil I, São Luís - MA, 65064-300",N/A,N/A,+55 98 98195-1599,5,12,-2.554726,-44.224163,maranhão
14,IC INTERNACIONAL CELULARES,,ChIJT1HiYdGP9gcRoYQe1TiRBAs,"Rua Rio Branco, 267 - Centro, São Luís - MA, 65020-490",N/A,N/A,+55 98 98845-8177,5,4,-2.5272022,-44.2958758,maranhão
15,Americanas,https://www.americanas.com.br/lojas-proximas/33014556000196/1284?ordenacao=topSelling&utm_medium=meunegocio&utm_source=google&utm_campaign=marca:acom;midia:meunegocio;formato:00;subformato:00;idcampanha:pacotelocal&epar=mn_00_00_go_pacotelocal,ChIJVwn_BOeR9gcR0uUGnIqBwm0,"R. 10 Unidade 203, 1 - Cidade Operária, São Luís - MA, 65058-188",N/A,N/A,,4.3,436,-2.5739322,-44.2016,maranhão
16,Celular Mania,,ChIJERXHHbOR9gcRtDKTIwHuy7g,"Av. Jerônimo de Albuquerque, 641 - Cruzeiro do Anil, São Luís - MA, 65054-015",N/A,N/A,+55 98 98407-3296,3.8,5,-2.537944,-44.222710899999996,maranhão
17,Saymon Cell,https://instagram.com/saymon_cell?igshid=5st0z7yql9nx,ChIJ9Y-LXD2b9gcRb1g1D53ESLo,"R. 23 Unidade 205 - Cidade Operária, São Luís - MA, 65058-153",N/A,N/A,+55 98 98467-3529,5,16,-2.5807727,-44.2021683,maranhão
18,Efraim Celulares,,ChIJl_LHunqR9gcRx9MwOKGcaJo,"Av. Contôrno Leste Oeste, 1a - Cohatrac I, São Luís - MA, 65053-680",N/A,N/A,+55 98 98128-1282,4.1,13,-2.5396484,-44.2063535,maranhão
19,CLUBSMART Assistência Técnica Express e Acessórios Para Celulares,,ChIJH8Q7Q3iQ9gcRR9y98f8f5Bc,"R. Pastor Estevam Ângelo de Souza - Ipem São Cristóvão, São Luís - MA, 65055-293",N/A,N/A,+55 98 99168-1466,5,9,-2.5672398999999997,-44.2176876,maranhão
20,Bigphone House - Assistência Técnica de celulares,https://www.instagram.com/bigphonehouse.slz/,ChIJbzAT2A-P9gcRACr50275C08,"Av. Getúlio Vargas, 1664 - Centro, São Luís - MA, 65025-000",N/A,N/A,+55 98 98708-1172,5,5,-2.5346032,-44.290079,maranhão
1,Celular Slz,https://www.facebook.com/celularslz/,ChIJM_RgLHaa9gcR_vp8xlfYcLY,"R. Cc - Cidade Operária, São Luís - MA, 65058-578",N/A,N/A,+55 98 99611-6979,4.4,16,-2.5772397,-44.1976073,maranhão
2,Espaço Dos Celulares Capas & Acessórios,,ChIJp-dJUfyQ9gcRm-7V3j5_uI0,"Avenida Contorno Sul, 22 Cohatrac Jardim Araçagi 2, São José de Ribamar - MA, 65110-000",N/A,N/A,+55 98 98454-3283,4.2,10,-2.5420390999999998,-44.2031062,maranhão
4,Dr. Celular,,ChIJU3MrlNyF9gcRxsULQ5knpHc,"Rua 19, Qda. Nº, R. Trinta e Dois, 22 - Vila Embratel, São Luís - MA, 65080-140",N/A,N/A,+55 98 98879-6587,,,-2.5709983999999997,-44.3083719,maranhão
5,Clube do Celular,,ChIJP2Y2qwyX9gcRxtvcQfZU3mY,"Avenida Era de aquários, R. Nova Terra, São José de Ribamar - MA, 65110-000",N/A,N/A,+55 98 99120-7237,,,-2.5709163,-44.153173599999995,maranhão
8,Casa Dos Celulares,,ChIJL600i6qR9gcRZ3qlSKSsfLI,"Av. Contorno Leste, 55 - Cohatrac II, São Luís - MA, 65053-570",N/A,N/A,+55 98 98825-1126,4.1,34,-2.5378506,-44.211139599999996,maranhão
9,L.A. Celular,,ChIJc1XSSfyQ9gcRPoP-mQstNN8,"Av. Contorno Sul - Cohatrac I, São Luís - MA, 65053-550",N/A,N/A,,1,1,-2.5419775,-44.204020199999995,maranhão
10,Assistência Celular REI DAS PELÍCULAS,,ChIJYWpYjOaO9gcRR1TlWyYQVkU,"R. Sete de Setembro, 755 - Centro, São Luís - MA, 65010-120",N/A,N/A,+55 98 98712-9603,4.2,10,-2.5320654,-44.3010836,maranhão
11,cbtech Informática e Celulares Assistência Técnica,,ChIJiVB-oSOQ9gcRGd5eZUts5W8,"Av. Projetada, 27 - Vila Palmeira, São Luís - MA, 65047-390",N/A,N/A,+55 98 3238-7637,4.9,79,-2.5440180999999997,-44.2549445,maranhão
12,CELULAR DA ILHA,https://celulardailha.mercadoshops.com.br/,ChIJv4KG6_6b9gcRiiCaa6R196s,"Av. Pavão Filho - Cidade Operária, São Luís - MA, 65058-874",N/A,N/A,+55 98 98470-0615,4.6,8,-2.5846478,-44.1919918,maranhão
13,Opção Celular,https://wa.me/+5598999947457,ChIJ2UfEjzyP9gcRX0CyloUTkUM,"Rua Santa Rita 25, Vila Isabel - Anjo da Guarda, São Luís - MA, 65082-075",N/A,N/A,+55 98 99994-7457,,,-2.5619223,-44.320873999999996,maranhão
14,Americanas,https://www.americanas.com.br/lojas-proximas/33014556000196/1120?ordenacao=topSelling&utm_medium=meunegocio&utm_source=google&utm_campaign=marca:acom;midia:meunegocio;formato:00;subformato:00;idcampanha:pacotelocal&epar=mn_00_00_go_pacotelocal,ChIJ8WXl8emQ9gcRjBZH66V3dGo,"Estr. De Ribamar, Av. Saramanta, 1000, São José de Ribamar - MA, 65110-000",N/A,N/A,,4.3,365,-2.5508636,-44.1919878,maranhão
16,Claudio Celulares,,ChIJ8fAZo-aO9gcRD3PevwnCGvs,"R. do Passeio, 184 b - Centro, São Luís - MA, 65015-370",N/A,N/A,+55 98 3221-3763,3.8,17,-2.5317666,-44.2965873,maranhão
17,RS Celulares,,ChIJ2WZIJ3ea9gcRYGn1dWW9P0Y,"Feira da Cidade Operária, Lateral Esquerda, Box 50, Avenida Este (Unidade 203), S/N - Cidade Operária, MA, 65058-182",N/A,N/A,+55 98 98711-2350,4.5,2,-2.5727462,-44.1985998,maranhão
18,Market Celulares e Informática,,ChIJDUkNJTmR9gcRLx9zSZcdWWo,"Avenida Cohab Anil, 2 - n 06 - COHAB Anil II, São Luís - MA, 65052-790",N/A,N/A,,5,1,-2.5408158999999997,-44.2184044,maranhão
19,Efraim Celulares,,ChIJ6Z-OYFKQ9gcRflYCXKITH1o,"Av. Cinco, 02 - COHAB Anil II, São Luís - MA, 65051-463",N/A,N/A,,3,2,-2.5411584,-44.2183134,maranhão
20,MEU CELULAR,,ChIJTa4bSumR9gcRLy-U4rUnVdI,"R. São Judas Tadeu, 19 - LOJA 04 - Cantinho do Céu, São Luís - MA, 65060-620",N/A,N/A,+55 98 98715-0910,,,-2.5229139,-44.2427165,maranhão
1,MRF Acessórios e Manutenção de Celular,,ChIJ938GTTST9gcR6mE7vB4tZsk,"Centro Comercial Empório Athenas - Av. Beta, SN - Loja 26 - Parque Athenas, São Luís - MA, 65072-120",N/A,N/A,+55 98 98419-7432,5,2,-2.503897,-44.2473047,maranhão
3,Shopping das Capas,,ChIJ_____2_uaH8R7AX6rdCBa4o,"R. das Flôres, 280 - Centro, São Luís - MA, 65010-120",N/A,N/A,+55 98 3222-5181,2,1,-2.5300667999999997,-44.2996773,maranhão
5,Volari Tech Celulares e Eletrônicos,https://www.volaritech.com.br/,ChIJw_3Psze6baYRtuwEIsP0o-k,"Mac Center - R. Euclides Farias, 1 - Sala 29, 1 Andar - Cohama, São Luís - MA, 65074-080",N/A,N/A,+55 98 98265-0031,5,8,-2.5123679,-44.2454459,maranhão
6,Market Celulares & Informática,,ChIJ7_tMEUKa9gcRFuQGDG81lV0,"Av. Principal Jardim Amẻrica, 89 A - Quadra 11 - Jardim América, São Luís - MA, 65058-000",N/A,N/A,+55 98 98400-8169,3.9,8,-2.5844469,-44.1965922,maranhão
8,Americanas,https://www.americanas.com.br/lojas-proximas/33014556000196/L364?ordenacao=topSelling&utm_medium=meunegocio&utm_source=google&utm_campaign=marca:acom;midia:meunegocio;formato:00;subformato:00;idcampanha:pacotelocal&epar=mn_00_00_go_pacotelocal,ChIJt9_SEYmN9gcR9LBIxWp_jaQ,"Av. dos Holandeses, 1 - Quadra 36, Loja 11 - Calhau, São Luís - MA, 65071-380",N/A,N/A,,3.9,148,-2.4913464999999997,-44.2547901,maranhão
9,Cristian Celulares,,ChIJey02Q7OP9gcRZGtPUdwmByI,"Av. 1, 1 - qd19 - Vinhais, São Luís - MA, 65071-010",N/A,N/A,+55 98 99245-9598,4.6,18,-2.5147806,-44.2541468,maranhão
10,Norte Refrigeração São Luís Atendimento CELULAR,https://www.instagram.com/bastosnorterefrigeracaosaoluis?utm_source=qr&igsh=MWUzanFydWZ5ZTJicA==,ChIJuSxJpTZYg0sR1SuJHPTcZr0,"Fale c/ Vendedor (98, 99126-4089 - Bequimão, São Luís - MA, 65065-010",N/A,N/A,+55 98 99126-4089,5,4,-2.5700308,-44.217517199999996,maranhão
12,G5 Informática e Celulares,https://whats.link/g5informaticaecelular,ChIJObNQhDeb9gcRBrnULhrxb8s,"Ao lado da Escola Menino Jesus - Av. Principal Jardim Amẻrica, 105 - Jardim América, São Luís - MA, 65058-284",N/A,N/A,+55 98 99226-3551,4.7,16,-2.5845152,-44.195786299999995,maranhão
13,Celular Veras,,ChIJER51EFuQ9gcRigrMuOjQQdM,"Av. Jerônimo de Albuquerque, 02C - Cohab Anil III, São Luís - MA, 65051-210",N/A,N/A,+55 98 3258-4074,,,-2.5158142999999997,-44.2545535,maranhão
14,CONFIANCA Celular,,ChIJpdTovheR9gcRYfY_0TYfip8,"Av. Japonesa - Ltm Novo Cohatrac, São José de Ribamar - MA, 65110-000",N/A,N/A,,,,-2.5319997,-44.1923862,maranhão
15,Isa Celulares,,ChIJ1-72wjGR9gcRJ6dO-Rd-NUc,"Travessa-24 Quadra-12 Presidente Vargas - Maiobão, Paço do Lumiar - MA",N/A,N/A,+55 98 98499-0611,5,3,-2.5420206,-44.1800644,maranhão
17,Celular Store,,ChIJf1WWZWaX9gcR5hVjQB_w-Ts,"R. São Sebastião - Vila Sarney Filho I, São José de Ribamar - MA, 65054-005",N/A,N/A,+55 98 98878-1278,4.5,8,-2.5521233,-44.1688894,maranhão
19,TOP CELL ACESSORIOS PRA CELULAR E INFORMATICA,https://www.instagram.com/topcell_acessorios7252/,ChIJv374Dzeb9gcRrmoiPsaHTgI,"Av. Guajajaras, 65 - Loja 10 - São Cristovao, São Luís - MA, 65055-285",N/A,N/A,+55 98 98421-2308,,,-2.5726028,-44.235951799999995,maranhão
20,Assistência Técnica e Acessórios para Celulares,,ChIJjeHrTzKR9gcREQqhMpU_TIM,"Posto Moraes Center - Av. Jerônimo de Albuquerque, 2000 - Cohafuma, São Luís - MA, 65071-750",N/A,N/A,+55 98 98783-8613,5,12,-2.5130174999999997,-44.2626695,maranhão
1,Empório Tech - Celulares e Acessórios,,ChIJSdhNvgSR9gcRWfE0f4wPWbs,"Av. Contôrno Norte, 1133 - Cohatrac IV, São Luís - MA, 65053-780",N/A,N/A,+55 98 98419-6728,5,3,-2.5353531,-44.201538299999996,maranhão
5,Celular & Informática,,ChIJ7ajwoXua9gcRQv0ftrBaEeM,"Av. 203, 91a - Cidade Operária, São Luís - MA, 65058-181",N/A,N/A,+55 98 3247-1600,4.8,4,-2.5741368,-44.2040879,maranhão
8,Company Celular,,ChIJ8fMafgCJ9gcRHR0YeUiRJFI,"R. Sete - Mauro Fecury II, São Luís - MA, 65082-471",N/A,N/A,+55 98 99109-2091,5,1,-2.5508463,-44.3327044,maranhão
10,Magazine Luiza,https://lojas.magazineluiza.com.br/filiais/1235?utm_source=google&utm_medium=maps&utm_campaign=gmb,ChIJ-a_7GLiP9gcRkG_buAUNeGU,"Av. Daniel de La Touche, 987 - Cohama, São Luís - MA, 65074-115",N/A,N/A,+55 98 3131-5700,4.2,2230,-2.5271869,-44.254435699999995,maranhão
11,MaisCELL slz Celulares & notebook,,ChIJm3pY9PiT9gcRNokgfQU0gzw,"Rua joao lisboa, Av. Acre, 11, São Luís - MA, 65066-646",N/A,N/A,+55 98 98465-9464,5,6,-2.4992516,-44.2183737,maranhão
14,Marcelo Celulares,,ChIJn4cNpNCW9gcRfAKNp2IFvjw,"Av. Contôrno Sul, 88 - Conj. Upaon - Acu, Paço do Lumiar - MA, 65130-000",N/A,N/A,+55 98 98702-0687,5,2,-2.5372798,-44.1628937,maranhão
15,Meireles Celular- São Luís | Assistência Técnica | Acessórios para celular,,ChIJ4-dTdFCb9gcRGpnhrZGJEuk,"Av. 203, N° 10 - Cidade Operária, São Luís - MA, 65058-172",N/A,N/A,+55 98 99169-1506,5,2,-2.5739538,-44.199740299999995,maranhão
16,Quiosque Magazine Luiza - Loja Marisa,https://www.magazineluiza.com.br/lojas/2316?utm_source=google&utm_medium=maps&utm_campaign=loja2316,ChIJNRbShQqP9gcRU_TwN0hYYiM,"Av. Prof. Carlos Cunha, 1000 - Jaracaty, São Luís - MA, 65076-907",N/A,N/A,+55 98 93300-4319,4,51,-2.5107087999999997,-44.285497799999995,maranhão
17,Fb Assistência E Acessório Em Celular,,ChIJ0RsTgHeR9gcREx95oRodgEc,"Parque Vitória, São José de Ribamar - MA",N/A,N/A,,,,-2.5179423,-44.2076717,maranhão
18,Celular e Cia,,ChIJvQfecpiR9gcRXWRUBWcKPs0,"R. 101, 21 - Quadra 73 - Maiobão, Paço do Lumiar - MA, 65130-000",N/A,N/A,+55 98 98509-6371,4.7,15,-2.538188,-44.1728314,maranhão
19,RSP Celulares,,ChIJkd1-vHOa9gcRlGzsIv_IGoc,"Próximo ao cruzamento com a Rua 1, Avenida 103 (Unidade 103), s/n - Cidade Operária, MA, 65058-094",N/A,N/A,+55 98 3303-1068,4.3,3,-2.5740753,-44.1941334,maranhão
20,W.V celular e assistência técnica,,ChIJD2tmTCuT9gcR5fogCekvb7o,"Av. Sol Nascente, 8 - QD 22 - Sol e mar, São Luís - MA, 65068-212",N/A,N/A,+55 98 98508-3460,5,5,-2.4890508,-44.2160874,maranhão
5,Venda e Instalação De Rastreadores e Bloqueadores,,ChIJmyx6doSD9gcRmDWkSQkTPhI,"Unnamed Rd - São Cristovao, São Luís - MA",N/A,N/A,+55 98 98327-1495,4.3,9,-2.6280459,-44.290647899999996,maranhão
18,GRCELL Acessórios e Assistência Técnica de Celular,,ChIJLb7CWmCR9gcRPicul4zwCiQ,"Tv. Perimetral Norte - Bequimão, São Luís - MA, 65061-512",N/A,N/A,+55 98 99607-1148,5,17,-2.5316253,-44.2467393,maranhão
2,Center cell- Rei das peças e acessórios,,ChIJ0RkaHw-b9gcRe7ae79BQZD0,"R. Aderson Lago, 27 - Casa 22 - Cidade Operária, São Luís - MA, 65058-864",N/A,N/A,+55 98 99184-9377,4.3,3,-2.5941541,-44.1931472,maranhão
5,Loja Do Celular,,ChIJLezXXuOa9gcR6yqym1BxWHQ,"Av. da Granja - São Raimundo, São Luís - MA",N/A,N/A,,,,-2.5937552,-44.2203856,maranhão
6,Lobo Cell,,ChIJpwy27kGa9gcRmYCyH2SLpWA,"Av. Principal Jardim Amẻrica, 80 - Cidade Operária, São Luís - MA, 65058-284",N/A,N/A,+55 98 98813-7470,4.7,158,-2.5842074,-44.198277999999995,maranhão
7,Kayros Cell Assistência Técnica,https://instagram.com/pablokayros?igshid=ZDdkNTZiNTM=,ChIJ2wTArj2b9gcRQv2-83bwSdQ,"Santa Clara, São Luís - MA, 65058-544",N/A,N/A,+55 98 98769-9567,,,-2.5991893999999998,-44.197308799999995,maranhão
9,D&G CELULARES,,ChIJXzSjvY6b9gcRp7I5vn14qww,"Av. Tibiri, 18 - São Raimundo, São Luís - MA, 65057-736",N/A,N/A,+55 98 98780-6050,1,1,-2.5995565,-44.222995,maranhão
14,Mega Cell Av Jardim América,https://linktr.ee/Megacelljardimamerica,ChIJyYoN9kGa9gcRJfF6ORV_uP4,"Av. Principal Jardim Amẻrica, 107 - Jardim América, São Luís - MA, 65058-284",N/A,N/A,+55 98 3257-0719,4.8,12,-2.5845154,-44.1957326,maranhão
15,Brasil Cell,https://linktr.ee/brasilcell,ChIJ296pEEKa9gcRkliXlJl_cys,"Av. Principal Jardim Amẻrica, 93 - Jardim América, São Luís - MA, 65058-284",N/A,N/A,+55 98 98812-6776,4.7,40,-2.5845138999999997,-44.1962954,maranhão
5,Bello Cell - Assistência Técnica,http://www.facebook.com/bello.cell.slz,ChIJxUDQIXWR9gcRHPNlXFWNGkA,"Bello Cell - Assistência Técnica - COHAB Anil III, São Luís - MA, 65050-510",N/A,N/A,+55 98 98228-4004,5,33,-2.545168,-44.222651,maranhão
11,HS CENTER ASSISTÊNCIA CELULARES,,ChIJU2OsBYGR9gcRVDm0Xd1DpJE,"R. São Jorge - Anil, São Luís - MA, 65046-840",N/A,N/A,+55 98 98521-7717,5,27,-2.5438361,-44.2392776,maranhão
13,Rafael celulares slz,https://www.instagram.com/rafael_celulares_slz?igsh=cWk3a2V1dHZvOXg5,ChIJfQcVCQCR9gcRvk8qXbLBsrU,"Av. Contorno Leste, Q.01 - loja.41b - Cohatrac II, São Luís - MA, 65053-570",N/A,N/A,+55 98 98237-1972,5,11,-2.5382461999999997,-44.2111684,maranhão
14,Loja de smartphone oficial,,ChIJI8XPnCaO9gcR6wDOLe-yWIc,"R. Alcântara Machado, 23 - Maranhão Novo, São Luís - MA, 65061-240",N/A,N/A,+55 98 99135-0894,5,1,-2.5279727,-44.2529478,maranhão
18,CELULAR CENTER,,ChIJAT3wrjCS9gcRMA2qV2lYnHM,"Jardim Eldorado, São Luís - MA, 65066-620",N/A,N/A,+55 98 98416-0422,5,15,-2.4995659,-44.2190522,maranhão
19,.Doutor celular,,ChIJXz_WTnCa9gcR1Yi3H8wlZ4E,"Av. Este Duzentos e Três, 128-132 - Cidade Operária, São Luís - MA, 65058-172",N/A,N/A,+55 98 98742-0300,4.5,16,-2.58233,-44.2063065,maranhão
3,Larissa Celulares,,ChIJ2ciu5fiF9gcR_YhEwEDGlLs,"R. Embratel, 18 - Vila Embratel, São Luís - MA, 65080-251",N/A,N/A,+55 98 98861-5908,4,2,-2.5653900999999997,-44.317232999999995,maranhão
5,AG CELL acessórios e assistência técnica,,ChIJYfhAbbWJ9gcRGtUxxTS10vM,"R. Mônaco, 2 - Anjo da Guarda, São Luís - MA, 65085-801",N/A,N/A,+55 98 98846-3825,5,10,-2.5622856,-44.3312733,maranhão
15,RAINHA DAS CAPAS,https://www.instagram.com/rainhadascapas.slz/,ChIJ_cQd77-J9gcRksjWSG_QQac,"Av. Moçambique, 1C - Anjo da Guarda, São Luís - MA, 65085-790",N/A,N/A,+55 98 99129-6544,3.7,3,-2.5613414999999997,-44.331624,maranhão
18,Casa Celular,,ChIJcyltBrqP9gcRsvqSRrWAox4,"Apeadouro, São Luís - MA, 65040-020",N/A,N/A,,,,-2.5443445,-44.272104299999995,maranhão
13,"Nagem Shopping Rio Anil: Celulares, Eletros, Games, Notebooks, São Luís",https://www.nagem.com.br/,ChIJS-0dK7eR9gcR_nwdFWb8mMU,"Av. São Luís Rei de França, 8 - Turu, São Luís - MA, 65065-470",N/A,N/A,+55 800 080 2021,3.5,29,-2.5336521,-44.225259099999995,maranhão
15,Casa Do Touch,,ChIJsfH5VL-P9gcRQK9_IyOZdqk,"Av. João Pessoa - João Paulo, São Luís - MA, 65040-000",N/A,N/A,+55 98 98883-9547,4.7,3,-2.5479806,-44.267119,maranhão
13,Mais Celular UEMA,,ChIJRyde3Y2b9gcRmKhKfwiLVws,"Av. Lourenço Vieira da Silva, 280 - Jardim São Cristóvão II, São Luís - MA, 65055-378",N/A,N/A,,,,-2.5742572999999997,-44.211285,maranhão
15,Celular,,ChIJ99HMLMSR9gcR-b_GpYKg3dQ,"Av. Tales Neto, 36 - João de Deus, São Luís - MA, 65057-470",N/A,N/A,,4,1,-2.5602807,-44.230246099999995,maranhão
17,Talles Celulares,https://instagram.com/talles_celulares.slz?igshid=YmMyMTA2M2Y=,ChIJo_7ds7WR9gcRfz8de9QCWW4,"Talles celulares - Av. Jerônimo de Albuquerque, 25 - Forquilha, São Luís - MA, 65051-210",N/A,N/A,+55 98 98515-9611,,,-2.5524961999999998,-44.219390999999995,maranhão
3,Wilson Celulares,,ChIJqYdudqKO9gcRBzhoaL5ohiY,"Tv. Benício Fontenele - São Francisco, São Luís - MA, 65076-460",N/A,N/A,+55 98 98225-2395,5,1,-2.5112783999999997,-44.3048226,maranhão
4,IPhone Connect,,ChIJe0RhdySO9gcRyOMSdQ61Nng,"Shopping da Ilha, Loja 323A, Piso L3, Av. Daniel de La Touche, 987 - Cohama, São Luís - MA, 65074-115",N/A,N/A,+55 98 3311-8284,4.2,36,-2.5270707,-44.2541854,maranhão
6,Mundo do IPhone,,ChIJSfiMJ_GP9gcRTKdJre8g4tc,"Av. Daniel de La Touche, 987 - Cohama, São Luís - MA, 65074-115",N/A,N/A,+55 98 98779-6905,4.5,4,-2.5277000999999997,-44.254547099999996,maranhão
10,Samsung Experience Store,https://www.samsung.com/br/campaign/storecontacts/,ChIJNS_KGn6O9gcRx_ymfMbAxQU,"Av. Prof. Carlos Cunha, 1000 - Piso 1 - Loja 204 - Jaracaty, São Luís - MA, 65076-820",N/A,N/A,+55 11 3230-3262,4.1,372,-2.5107087999999997,-44.285497799999995,maranhão
11,Loja de iPhone - VT Store Slz,https://www.instagram.com/vtstoreslz/,ChIJjYzFMreP9gcRH-xOdEnGMd0,"Centro Empresarial Shopping da Ilha - Av. Daniel de La Touche, Torre 2, Sala 606 - Cohama, São Luís - MA, 65074-115",N/A,N/A,+55 98 98464-7379,5,2,-2.5281716,-44.254859499999995,maranhão
15,MySmart Celulares e Acessórios,http://www.instagram.com/lojamysmart,ChIJjbTc_imP9gcRur6TgGwdlhc,"Tv. da União, 125 - Fatima, São Luís - MA, 65031-720",N/A,N/A,+55 98 98174-4409,,,-2.5456738,-44.2800641,maranhão
16,Celular Mania,,ChIJbwnwXXyP9gcRBuHrn0Zlivw,"Ed. Duas Nações - R. São João, 340 - Centro, São Luís - MA, 65010-600",N/A,N/A,+55 98 98407-3296,5,1,-2.5309006,-44.3003582,maranhão
17,New IPhone SLZ Shopping da Ilha,,ChIJb6_eBa2R9gcREAlwkKKMyBs,"Shopping da Ilha - Bequimão, São Luís - MA, 65062-420",N/A,N/A,+55 98 98599-6346,,,-2.5271673,-44.2553407,maranhão
20,Iphone Prince - Loja e Assistência Técnica Especializada em Iphones,,ChIJrUSrjqaP9gcRJQKAId_G6FQ,"SHOPPING DA ILHA CENTRO EMPRESARIAL - Av. Daniel de La Touche, TORRE 01 SALA 810 - Cohama, São Luís - MA, 65074-115",N/A,N/A,+55 98 99108-0323,5,6,-2.5274682,-44.255150099999994,maranhão
2,JDL celulares,,ChIJI9V5UrCP9gcR0y1XBQkcX_0,"R. Tancredo Cordeiro - Monte Castelo, São Luís - MA, 65035-740",N/A,N/A,+55 98 99981-4194,,,-2.5315239,-44.2822076,maranhão
7,Celular Veras,,ChIJv-jtDfuO9gcRa724C8T8PDU,"R. Oswaldo Cruz, 1126 - sala 06 - Centro, São Luís - MA, 65020-250",N/A,N/A,+55 98 98741-2021,5,3,-2.5313005,-44.293422799999995,maranhão
8,trocasmartsl,,ChIJkYu4iHCP9gcRMdXfSLD64p8,"Shopping da Ilha - Av Daniel de la touche 987 Torre 2 sala 907 - Cohama, São Luís - MA, 65074-115",N/A,N/A,+55 98 99160-3572,,,-2.5274136,-44.255304699999996,maranhão
9,Samany Eletro,https://instagram.com/samany.eletro?r=nametag,ChIJTQbagMOR9gcRt1RE8Oh9bbs,"Av. Daniel de La Touche, 987 - Cohama, São Luís - MA, 65074-115",N/A,N/A,+55 98 98522-4822,5,4,-2.5274136,-44.255304699999996,maranhão
10,Cabana Apple Store,https://cabanaapplestore.com.br/link-bio/,ChIJ3_hfAw6P9gcR8O9X9WtOxA4,"Av. Daniel de la Touche, Centro Empresarial Shopping Da Ilha - Cohama Torre 1, Sala 809 - Cohama, São Luís - MA, 65074-115",N/A,N/A,+55 98 98596-9233,3,2,-2.5276058,-44.255012099999995,maranhão
14,iStore São Luís - iPhones e Acessórios,http://bit.ly/2PeSiji,ChIJoa1rSIuP9gcRxl6-Y7yfwCY,"Shopping da Ilha, Av. Daniel de La Touche - Bequimão, São Luís - MA, 65074-115",N/A,N/A,+55 98 98131-0307,1.8,5,-2.5272734999999997,-44.2552774,maranhão
17,Casa do Celular - São Luís 3,https://casadocelular.com.br/,ChIJz7PZMgmP9gcR9Wi4arD8mXs,"R. Oswaldo Cruz, 239 - Centro, São Luís - MA, 65020-251",N/A,N/A,+55 98 98532-7632,3.2,9,-2.5304618999999997,-44.3012655,maranhão
18,W Capas E Acessórios,,ChIJH1y528uP9gcRRztsGX-2vU4,"Vila Ivar Saldanha, São Luís - MA, 65074-115",N/A,N/A,,5,2,-2.5405566,-44.2636976,maranhão
20,nau CELULAR,,ChIJwQBwR-eR9gcRIPtiOhj5OqA,"Tv. São Judas Tadeu - Cantinho do Céu, São Luís - MA, 65060-610",N/A,N/A,,,,-2.5227804,-44.2423863,maranhão
6,Loja Vivo,https://vivo.com.br/para-voce/ajuda/mais-ajuda/encontre-uma-loja?_gl=1*pwmg40*_gcl_aw*R0NMLjE3MzI1MjU4MzMuRUFJYUlRb2JDaE1Jek15VjBkdjFpUU1WMDJ6ZEFoMTBNU0plRUFFWUFTQUFFZ0lsWXZEX0J3RQ..*_gcl_dc*R0NMLjE3MzI1MjU4MzMuQ0t6LV90ZmI5WWtERlRWSzNRSWQxUUVEY1E.*_gcl_au*MTUzOTUwNjgxNS4xNzMxNjIxOTE3*_ga*MjEyMzgwODk5Mi4xNzMxNjIxOTI5*_ga_JWH50P3VES*MTczMjkwMzAzNC40LjEuMTczMjkwMzA4OS41LjAuMA,ChIJA5a9giCS9gcRzuKTwmdtdfA,"Rio Anil Shopping - Av. São Luís Rei de França, 8 - Turu, São Luís - MA, 65065-470",N/A,N/A,+55 98 99115-0000,4,484,-2.5335738,-44.22506,maranhão
8,Onefix Assistência Técnica Especializada,,ChIJyXCK_6GT9gcRZ7H5RWugsSA,"R. São Jorge, 32A - Anil, São Luís - MA, 65046-820",N/A,N/A,+55 98 98559-6107,5,13,-2.544003,-44.2385709,maranhão
20,Iclick - Reparos avançados,https://instagram.com/iclickreparos?igshid=YmMyMTA2M2Y=,ChIJ8U4NJiGR9gcR74x6hp9sOw4,"Rua Boa Esperança 01 - Res. Pinheiros - Cohama, São Luís - MA, 65066-190",N/A,N/A,+55 98 98213-7117,4.6,57,-2.5184037,-44.238077,maranhão
1,Maxcel,,ChIJXxA2FC2M9gcRJ11X9peTjVo,"Av. Coronel Colares Moreira, 400 - Jardim Renascença II, São Luís - MA, 65075-440",N/A,N/A,+55 98 3235-3896,4.4,5,-2.5010149,-44.287822899999995,maranhão
2,Loja Vivo,https://vivo.com.br/para-voce/ajuda/mais-ajuda/encontre-uma-loja?_gl=1*pwmg40*_gcl_aw*R0NMLjE3MzI1MjU4MzMuRUFJYUlRb2JDaE1Jek15VjBkdjFpUU1WMDJ6ZEFoMTBNU0plRUFFWUFTQUFFZ0lsWXZEX0J3RQ..*_gcl_dc*R0NMLjE3MzI1MjU4MzMuQ0t6LV90ZmI5WWtERlRWSzNRSWQxUUVEY1E.*_gcl_au*MTUzOTUwNjgxNS4xNzMxNjIxOTE3*_ga*MjEyMzgwODk5Mi4xNzMxNjIxOTI5*_ga_JWH50P3VES*MTczMjkwMzAzNC40LjEuMTczMjkwMzA4OS41LjAuMA,ChIJfWBfZ_uN9gcRONiKw7GfGi0,"Av. Coronel Colares Moreira, 400 - Bloco D4 - Loja 08 - Jardim Renascença, São Luís - MA, 65075-441",N/A,N/A,+55 33 99708-4518,3.9,17,-2.5015294999999997,-44.2875459,maranhão
3,Orbecon Mobile,,ChIJPZblEi2M9gcR_HxJoAh1lXk,"Shopping Tropical - Av. Coronel Colares Moreira, 400 - Jardim Renascença, São Luís - MA, 65075-440",N/A,N/A,+55 98 3227-1728,3.8,6,-2.5009611,-44.2874537,maranhão
4,YAGO SMARTPHONE,https://instagram.com/yago_smartphones?igshid=MzRlODBiNWFlZA==,ChIJZ4nVckaR9gcRfvI6Ivzw5jY,"Edf Office Tower - Av. Coronel Colares Moreira, SALA 105 ANDAR 1 - Jardim Renascença, São Luís - MA, 65075-060",N/A,N/A,+55 98 98227-4119,5,1,-2.5016629999999997,-44.2910247,maranhão
9,AMG Informática e iPhones,,ChIJOUmT3Z2O9gcRbpONCZW697A,"Av. Colares Moreira, n400 - Bloco B4 - Loja 8 Tropical shopping - Jardim Renascença, São Luís - MA, 65075-441",N/A,N/A,+55 98 3268-7377,4,43,-2.5010106,-44.287475,maranhão
11,Casa Tech,,ChIJ98ICmS2M9gcRbGBgrCAAubs,"Ed. São Luis Multiempresarial-Loja 9, R. dos Azulões, 10 - Jardim Renascença, São Luís - MA, 65075-060",N/A,N/A,+55 98 98839-8222,4.6,60,-2.5006375,-44.2886956,maranhão
12,Rei do iPhone Slz - Oficial - O Pioneiro,https://www.instagram.com/reidoiphone_slzoficial,ChIJlUhg4z-M9gcRG3bZb2EFO2s,"Av: dos holandeses, 03 - Loja 07 - Ponta do Farol, São Luís - MA, 65071-380",N/A,N/A,+55 98 98131-9875,4.4,219,-2.4920666,-44.2928873,maranhão
14,Americanas,https://www.americanas.com.br/lojas-proximas/33014556000196/L273?ordenacao=topSelling&utm_medium=meunegocio&utm_source=google&utm_campaign=marca:acom;midia:meunegocio;formato:00;subformato:00;idcampanha:pacotelocal&epar=mn_00_00_go_pacotelocal,ChIJp1MwlJeN9gcR16B_BQg91Os,"Av. Coronel Colares Moreira, 400 - Loja Ancor - Jardim Renascença, São Luís - MA, 65076-820",N/A,N/A,,4,61,-2.5008211,-44.287135199999994,maranhão
15,Loja Vivo,https://vivo.com.br/para-voce/ajuda/mais-ajuda/encontre-uma-loja?_gl=1*pwmg40*_gcl_aw*R0NMLjE3MzI1MjU4MzMuRUFJYUlRb2JDaE1Jek15VjBkdjFpUU1WMDJ6ZEFoMTBNU0plRUFFWUFTQUFFZ0lsWXZEX0J3RQ..*_gcl_dc*R0NMLjE3MzI1MjU4MzMuQ0t6LV90ZmI5WWtERlRWSzNRSWQxUUVEY1E.*_gcl_au*MTUzOTUwNjgxNS4xNzMxNjIxOTE3*_ga*MjEyMzgwODk5Mi4xNzMxNjIxOTI5*_ga_JWH50P3VES*MTczMjkwMzAzNC40LjEuMTczMjkwMzA4OS41LjAuMA,ChIJF-5lOeiN9gcRQWZXngNIgu0,"Avenida dos Holandeses, 200 Loja 137A - Golden Shopping - Térreo - Calhau, São Luís - MA, 65071-380",N/A,N/A,+55 98 99229-4888,4.8,5,-2.4905809,-44.2637279,maranhão
16,MC Iphones,http://linktr.ee/mciphones,ChIJp9EHiiSO9gcR2T2c6fGQ4Ps,"Galeria Studio 1 - Av. dos Holandeses - Ponta do Farol, São Luís - MA, 65075-650",N/A,N/A,+55 98 98144-3872,4.3,72,-2.4917037,-44.293648399999995,maranhão
1,MOURA PHONES,,ChIJT-bw-bqR9gcRREQ9xsvr7aw,"POSTO SHELL - Av. Prof. Carlos Cunha, 1000 - QD 4, LOJA 1 - Cohafuma, São Luís - MA, 65076-907",N/A,N/A,+55 98 98221-8569,4.8,20,-2.5079249,-44.2846826,maranhão
5,Suporte Celulares,,ChIJdZxmm4CT9gcRdpuPrEn6k_Q,"Av. Brasil - Vila Vicente Fialho, São Luís - MA, 65070-130",N/A,N/A,+55 98 98203-3800,4.2,9,-2.5090437999999997,-44.2415804,maranhão
7,Assistência Tecnica Apple - We Fix - Autorizada IRP Em São Luis,https://wethree.com.br/index.php/servicos/,ChIJ89GEJXqP9gcRsXBf3XQwWYU,"Edificio Windows Open Mall - Av. dos Holandeses, 13 - Loja 8 - Jardim Renascença, São Luís - MA, 65075-650",N/A,N/A,+55 98 98308-8500,4.8,199,-2.492976,-44.2854232,maranhão
10,Centerfix - Centro de Serviço Autorizado Apple,https://centerfixma.com.br/,ChIJA-tsqJ-O9gcR-jdiKhN9u20,"Av. Holandeses, 13 - Ed. Windows Open Mall, loja 29 - Térreo - Jardim Renascença, São Luís - MA, 65075-650",N/A,N/A,+55 98 3303-2022,4,137,-2.4929587,-44.2854388,maranhão
11,AlfaCell jaracaty,,ChIJHUk-tUKP9gcRo11PuoGAglM,"R. Três, 1 - Jaracaty, São Luís - MA, 65076-828",N/A,N/A,+55 98 98493-9353,5,1,-2.5111749999999997,-44.2894928,maranhão
2,Mundo do Iphone golden,,ChIJRRHoqW6S9gcRbagXure-Nc4,"Av. dos Holandeses, 200 - Calhau, São Luís - MA, 65071-380",N/A,N/A,+55 98 98916-0180,,,-2.4913843,-44.2343878,maranhão
5,Iphone connect,,ChIJ5RP8uiiT9gcREuSEDXAcLxY,"Posto diplomata - R. H Quinze, n20 - loja 2 - Parque Shalon, São Luís - MA, 65073-000",N/A,N/A,+55 98 98564-0108,5,1,-2.4946059,-44.2401641,maranhão
7,Arena do iPhone,,ChIJ6f9EAmKN9gcRINB9hfniYYI,"Av. Principal, S/N - Quadra 22, Loja 04 - Cohajap, São Luís - MA, 65066-000",N/A,N/A,+55 98 98206-7777,4.3,19,-2.4961538,-44.240235299999995,maranhão
9,RD CELULARES,,ChIJUzz3NwiT9gcRl5kHwqGV7hs,"R. Vinte Um de Junho, casa 3b - Vila Luizão, São Luís - MA, 65068-607",N/A,N/A,+55 98 98853-4590,3,1,-2.4937299,-44.2103501,maranhão
18,MARKET CELULARES Olho d'água,https://instagram.com/marketcelular?igshid=2qm23eperq3b,ChIJb7DoQ0-T9gcRfoqiXLMjscM,"Av brasil, Pátio Brasil, 1135 - Lj04 - Olho D'agua, São Luís - MA, 65065-070",N/A,N/A,+55 98 98880-8894,5,3,-2.4892173,-44.2196952,maranhão
1,Suporte Smart - Cohajap,https://suportesmart.com.br/franquia/sao-luis-ma-cohajap/,ChIJQ7FyFVCP9gcRDo7R52aRzgM,"Galeria Flauden park - loja B3 - Cohajap, São Luís - MA, 65072-580",N/A,N/A,+55 98 3301-3071,,,-2.499505,-44.242166999999995,maranhão
2,Grand Cell Capas E Acessórios,,ChIJHx_yMkCa9gcR3eqOnDB1KU4,"Av. Brasil - Divinéia, São Luís - MA, 65058-284",N/A,N/A,+55 98 98207-0046,4.5,2,-2.4907247999999997,-44.2196529,maranhão
4,Barão Smartphones,https://instabio.cc/Baraosmartphones?fbclid=PAAaYrBcEBBuLwSmQJUDKDfJ8dCcjWQ2UQ1F29USjIdxiAlV0lY8KJoivmH4g_aem_Aa4kMJCJI59PLxB853cBQ-Mi6khgEKUBuFKwTuRBHt0NdykCF2KQIg8RxBUSxgpG7oA,ChIJ8Z8MhweP9gcR5hyMTj-Rhp4,"R. Euclides Farias, 2 - quadra 23 - Cohama, São Luís - MA, 65074-080",N/A,N/A,+55 98 98186-8260,5,16,-2.5113784,-44.248151899999996,maranhão
5,Tok cell,https://meulink.com.vc/tok-cell-assistencia-tecnica-em-smartfones/,ChIJu2L4PBiT9gcRLb3-YrXpuCo,"Av. Argentina, 10 - A - Olho D'agua, São Luís - MA, 65050-030",N/A,N/A,+55 98 98274-2950,4.6,7,-2.4908315,-44.217686699999994,maranhão
7,alessandro_apple,,ChIJTU492R-R9gcRHabKf6watK4,"Av. Daniel de La Touche - Cohama, São Luís - MA, 65074-115",N/A,N/A,+55 98 98430-7872,5,1,-2.5119488999999997,-44.244384499999995,maranhão
8,RR Celulares,https://www.instagram.com/invites/contact/?i=fxut0k6tosju&utm_content=gybvqh5,ChIJ2wUkZzuT9gcRjsgATjhRZ28,"Av. Brasil, 63 - Olho D'agua, São Luís - MA, 65066-620",N/A,N/A,+55 98 98893-8324,5,1,-2.4962296,-44.2193006,maranhão
9,Império Cell,,ChIJk6Sdu2CN9gcR5rvwA8-G1g4,"Av. da História, 09 - Cohafuma, São Luís - MA, 65074-795",N/A,N/A,+55 98 98778-7400,5,5,-2.5077118,-44.2696915,maranhão
10,Tech New Celulares e Informática,,ChIJ6c_nZjeS9gcRtoX8wHKD9t4,"Av. Brasil, 11B - Olho D'agua, São Luís - MA, 65066-620",N/A,N/A,+55 98 98735-0056,3.8,10,-2.4981849,-44.219044499999995,maranhão
11,Apple Club Suporte Técnico Avançado.,,ChIJcxG3dr6P9gcRVg9q07QQpKE,"R. Euclides Farias, 22 - Cohama, São Luís - MA, 65074-080",N/A,N/A,+55 98 98352-7684,5,1,-2.5106851999999997,-44.2498785,maranhão
12,Central do iPhone,,ChIJm-TBuQKS9gcRGGho1tgaWLE,"R. Principal, 12 A - Quadra 04 - Vila Vicente Fialho, São Luís - MA, 65070-480",N/A,N/A,+55 98 99982-0505,2.3,3,-2.5085748999999997,-44.2390653,maranhão
14,Market Celulares e Informática,,ChIJf3Tz1nmR9gcR2hi_ASGd6uA,"Via Coletora, 4000 - Quadra 2A - Parque Vitória, São José de Ribamar - MA, 65110-000",N/A,N/A,+55 98 97012-5566,4.9,12,-2.5175719,-44.206726599999996,maranhão
15,Netinho do Celular,,ChIJH2kbrQGO9gcRUesUOQk6i7A,"em frente o shopping mac center - R. Euclides Farias, 1 - Cohama, São Luís - MA, 65074-080",N/A,N/A,+55 98 98472-5635,4,3,-2.5107095,-44.2497148,maranhão
18,Clube do celular slz,,ChIJz5B-46eR9gcR_r17u6FuoGI,"Estrada da Vitória - Parque Vitória, São Luís - MA, 65068-846",N/A,N/A,+55 98 98112-4651,,,-2.5198272,-44.2026196,maranhão
20,House & Tec assistência técnica em celulares e computadores,,ChIJhXL-eUWR9gcRlJTbqpu44oQ,"R. Boa Esperança - Cantinho do Céu, São Luís - MA, 65066-620",N/A,N/A,+55 98 97002-0597,3,2,-2.5201368,-44.2295375,maranhão
1,Icenter.Itz Assistência Técnica e Acessórios para Celulares,https://www.instagram.com/icenter.itz/profilecard/?igsh=MWt1MWg1aXh0azd3YQ==,ChIJ-4PCg_VfxZIR3xLphNyfyLc,"Ao lado do guaraná da dita - Av. Beira Rio, N° 011 - Beira Rio, Imperatriz - MA, 65900-055",N/A,N/A,+55 99 98102-0010,5,196,-5.5352388,-47.4892143,maranhão
2,Mitech Xiaomi,,ChIJaTMkcWlLJpMR94k0fN0pdVM,"BR-010, 100 - Jardim Sao Luis, Imperatriz - MA, 65913-015",N/A,N/A,+55 99 99201-1215,5,15,-5.528773,-47.469777,maranhão
3,Senhor Phone,http://senhorphone.com.br/,ChIJ81PVeGtfxZIR7nuGJJ-P_Bs,"Rua Piauí, 580 Tocantins Shopping, 2 piso, Loja 231 - Centro, Imperatriz - MA, 65901-610",N/A,N/A,+55 99 98183-1886,5,149,-5.5256966,-47.4814467,maranhão
4,S TECH CELULARES - TIMBIRA SHOPPING,https://instagram.com/stechcelulares?igshid=MzMyNGUyNmU2YQ==,ChIJNY3yjWRfxZIREV7PQpdR6As,"R. Ceará, 576 - Centro, Imperatriz - MA, 65901-610",N/A,N/A,+55 99 99207-1108,5,4,-5.5251598,-47.4804933,maranhão
5,Loja Vivo,https://vivo.com.br/para-voce/ajuda/mais-ajuda/encontre-uma-loja?_gl=1*pwmg40*_gcl_aw*R0NMLjE3MzI1MjU4MzMuRUFJYUlRb2JDaE1Jek15VjBkdjFpUU1WMDJ6ZEFoMTBNU0plRUFFWUFTQUFFZ0lsWXZEX0J3RQ..*_gcl_dc*R0NMLjE3MzI1MjU4MzMuQ0t6LV90ZmI5WWtERlRWSzNRSWQxUUVEY1E.*_gcl_au*MTUzOTUwNjgxNS4xNzMxNjIxOTE3*_ga*MjEyMzgwODk5Mi4xNzMxNjIxOTI5*_ga_JWH50P3VES*MTczMjkwMzAzNC40LjEuMTczMjkwMzA4OS41LjAuMA,ChIJIxicO82bEZURJqSJMvUq-tA,"R. Piauí, 580 - Loja 153 e 154 - Centro, Imperatriz - MA, 65901-610",N/A,N/A,+55 800 100 1011,4.3,10,-5.5263972,-47.481338699999995,maranhão
6,Samsung Experience Store,https://www.samsung.com/br/campaign/storecontacts/,ChIJOSsv-QxfxZIRQfmaIPjmjOw,"R. Euclides da Cunha, 2006 - Parque Santa Lucia, Imperatriz - MA, 65900-000",N/A,N/A,+55 99 98826-4747,4.3,110,-5.5293585,-47.469903099999996,maranhão
7,Senhor Smart Imperatriz - Smartphones e Tablets,http://senhorsmart.com.br/imperatrizcentro,ChIJlwXcu0lfxZIRfrzLt72hxyE,"Shopping Tocantins - R. Piauí, 580 - Loja 136 - Centro, Imperatriz - MA, 65901-600",N/A,N/A,+55 99 99219-3901,4.6,9,-5.5263972,-47.481338699999995,maranhão
8,Expresso Phone,https://www.instagram.com/expresso.phone/,ChIJr7g0wMZfxZIRZ86gMNwcpyo,"Prédio space center , segundo - Av. Dorgival Pinheiro de Sousa, 917 - andar, sala 04 - Centro, Imperatriz - MA, 65903-270",N/A,N/A,+55 99 98112-9172,5,4,-5.5259447999999995,-47.479417999999995,maranhão
9,GugaPhone | Celulares e Acessórios em Imperatriz,https://www.instagram.com/_gugaphone/,ChIJN0-K5ipfxZIRTe2-1jpdEdk,"Edifício novo tempo - R. Paraíba, 764 - Sala 206, Segundo Andar - Centro, Imperatriz - MA, 65903-310",N/A,N/A,+55 99 98402-4417,,,-5.526085999999999,-47.4769923,maranhão
10,Americanas,https://www.americanas.com.br/lojas-proximas/33014556000196/1037?ordenacao=topSelling&utm_medium=meunegocio&utm_source=google&utm_campaign=marca:acom;midia:meunegocio;formato:00;subformato:00;idcampanha:pacotelocal&epar=mn_00_00_go_pacotelocal,ChIJNTKgCwFfxZIRXs3YujbHOrQ,"Av. Getúlio Vargas, 440 - Centro, Imperatriz - MA, 65901-450",N/A,N/A,,4.2,494,-5.5324545999999994,-47.4853958,maranhão
11,Americanas,https://www.americanas.com.br/lojas-proximas/33014556000196/L490?ordenacao=topSelling&utm_medium=meunegocio&utm_source=google&utm_campaign=marca:acom;midia:meunegocio;formato:00;subformato:00;idcampanha:pacotelocal&epar=mn_00_00_go_pacotelocal,ChIJ_2h5SqxhxZIRMU7XT4Rj5mY,"Marginal BR-010, 100 - Jardim Sao Luis, Imperatriz - MA, 65909-610",N/A,N/A,,4.1,688,-5.5294132,-47.4697958,maranhão
12,Imperatriz tech Loja de celulares em Imperatriz- ma,,ChIJM3gHHV1fxZIRHNg88McxduE,"R. Padre Cícero, 234 - Santa Rita, Imperatriz - MA, 65919-010",N/A,N/A,,4.7,3,-5.5059492,-47.492440699999996,maranhão
13,Loja Vivo,https://vivo.com.br/para-voce/ajuda/mais-ajuda/encontre-uma-loja?_gl=1*pwmg40*_gcl_aw*R0NMLjE3MzI1MjU4MzMuRUFJYUlRb2JDaE1Jek15VjBkdjFpUU1WMDJ6ZEFoMTBNU0plRUFFWUFTQUFFZ0lsWXZEX0J3RQ..*_gcl_dc*R0NMLjE3MzI1MjU4MzMuQ0t6LV90ZmI5WWtERlRWSzNRSWQxUUVEY1E.*_gcl_au*MTUzOTUwNjgxNS4xNzMxNjIxOTE3*_ga*MjEyMzgwODk5Mi4xNzMxNjIxOTI5*_ga_JWH50P3VES*MTczMjkwMzAzNC40LjEuMTczMjkwMzA4OS41LjAuMA,ChIJ2ZZAf3xfxZIRt-_GM82zQ68,"BR-010, 100 - Loja D105 - Jardim Sao Luiz, Imperatriz - MA, 65913-015",N/A,N/A,+55 99 99134-9464,3.1,12,-5.528773,-47.469777,maranhão
14,Atacadão dos Celulares,,ChIJB1yw2E1fxZIRNTQgIKNkRkU,"Av. Getúlio Vargas, 919 - Centro, Imperatriz - MA, 65901-550",N/A,N/A,+55 99 98110-1028,5,3,-5.5295806999999995,-47.4822092,maranhão
15,Atacadão dos celulares,,ChIJ2_Y0WsZfxZIRY2MjLZdWv6A,"calçadão e centro de compras GV -756, Rua Sousa Lima - Centro, Imperatriz - MA, 65900-320",N/A,N/A,+55 99 99202-3928,5,2,-5.5307374,-47.4832277,maranhão
16,"Celulares, Assessórios e Eletro Eletrônicos - Shoping Tocantins",,ChIJudMLLRtfxZIR6SKFcJ7seKs,"1° Piso, R. Piauí, 948 - Centro, Imperatriz - MA, 65907-090",N/A,N/A,+55 99 4102-3398,,,-5.528363,-47.4779716,maranhão
17,Top News,https://topnews.kyte.site/celular,ChIJIW__zglfxZIRJGBbW0kndfg,"Top News - Timbira Shopping, R. Ceará, Imperatriz - MA, 65901-610",N/A,N/A,+55 99 98275-8826,,,-5.5254918,-47.480993,maranhão
18,W.L Celulares,,ChIJzWP6mBFfxZIRZzXC1NqQjvA,"R. Beta, 342 - Bacuri, Imperatriz - MA, 65916-100",N/A,N/A,,5,1,-5.5375746999999995,-47.4746263,maranhão
19,Cell Itz Assistencia técnica e Variedades,https://wa.me/5599981469968,ChIJWTfwIQFfxZIRZ60nQ4gza04,"R. Osvaldo Cruz, 1084 - Bacuri, Imperatriz - MA, 65916-170",N/A,N/A,+55 99 98146-9968,5,25,-5.5440537999999995,-47.4742835,maranhão
20,JR tech. acessorios de celulares e informatica,,ChIJrdB0CS5fxZIRB3KoOybN01M,"R. Paulo Afonso, 121 - Parque Santa Lucia, Imperatriz - MA, 65907-230",N/A,N/A,+55 99 99188-3646,5,3,-5.5187691999999995,-47.4491243,maranhão
1,SOCORRÃO CELULARES,,ChIJN5HDZ-xfxZIR3NzxJqqPmPk,"R. Ceará, 927 - Centro, Imperatriz - MA, 65901-260",N/A,N/A,+55 99 99220-0054,5,1,-5.528131999999999,-47.477847,maranhão
2,Baratão SmartPhone,,ChIJexsl99NfxZIRMl1OoyPOGK4,"entre Maranhão e Piauí - Av. Getúlio Vargas - Centro, Imperatriz - MA, 65913-473",N/A,N/A,+55 99 99191-9928,5,1,-5.5279780999999995,-47.4799857,maranhão
4,Italo Celulares e Acessorios - Assistência Técnica,,ChIJA7hdwIVfxZIRxBGX2aZyNPM,"Av. Bernardo Sayão, 1270 - Nova Imperatriz, Imperatriz - MA, 65907-000",N/A,N/A,+55 99 98143-6238,4.8,126,-5.5197945,-47.487682799999995,maranhão
5,"Araújo Celulares, Assistência Técnica E Variedades",,ChIJsUsdugBfxZIRwfLX6PtFqz8,"Rua Sousa Lima, 523 - Centro, Imperatriz - MA, 65907-150",N/A,N/A,+55 99 99125-5005,5,1,-5.5295254,-47.483995199999995,maranhão
6,Lider Celulares - Seu Iphone - Xiaomi - JBL em Imperatriz Ma,,ChIJW1PJCP5fxZIRW6pb6kuoXhU,"Timbira Shopping - R. Ceará, 576 - sala 92 2 piso - Nova Imperatriz, Imperatriz - MA, 65900-000",N/A,N/A,+55 99 98521-3644,5,1,-5.5252592,-47.480475299999995,maranhão
7,Alô cell celulares e informática,https://www.alocell.com.br/,ChIJZdtblrBfxZIRruRtfOnLGqE,"e - Rua ceará 940B entre Luis Domingues, R. Benedito Leite - Mercadinho, Imperatriz - MA, 65901-260",N/A,N/A,+55 99 98246-9000,4.5,26,-5.5283652,-47.4779699,maranhão
9,AC Variedades,,ChIJvUqgOu9fxZIRYqW5twUt9Aw,"Rua Sousa Lima, 590 - Centro, Imperatriz - MA, 65900-000",N/A,N/A,+55 99 98166-8007,4.9,7,-5.5301582,-47.483613999999996,maranhão
10,Dversion Celulares e Acessórios,https://www.instagram.com/dversion_1/,ChIJoa-ox-JfxZIRzGxb4M2Bbu8,"R. Coriolano Milhomem - Shopping da Cidade, Imperatriz - MA, 65900-370",N/A,N/A,+55 99 98450-0793,5,1,-5.5296175,-47.4853926,maranhão
11,Brasil Celular,,ChIJs4zDAK5fxZIRYBVzBOG4xt0,"R. Ceará, 83a - Nova Imperatriz, Imperatriz - MA, 65907-090",N/A,N/A,+55 99 99144-2221,,,-5.520940899999999,-47.483328799999995,maranhão
12,Loja Vivo,https://vivo.com.br/para-voce/ajuda/mais-ajuda/encontre-uma-loja?_gl=1*pwmg40*_gcl_aw*R0NMLjE3MzI1MjU4MzMuRUFJYUlRb2JDaE1Jek15VjBkdjFpUU1WMDJ6ZEFoMTBNU0plRUFFWUFTQUFFZ0lsWXZEX0J3RQ..*_gcl_dc*R0NMLjE3MzI1MjU4MzMuQ0t6LV90ZmI5WWtERlRWSzNRSWQxUUVEY1E.*_gcl_au*MTUzOTUwNjgxNS4xNzMxNjIxOTE3*_ga*MjEyMzgwODk5Mi4xNzMxNjIxOTI5*_ga_JWH50P3VES*MTczMjkwMzAzNC40LjEuMTczMjkwMzA4OS41LjAuMA,ChIJc9gXnlJfxZIRPKdmvbUEtPM,"Av. Getúlio Vargas, 1462 - Beira Rio, Imperatriz - MA, 65901-550",N/A,N/A,+55 99 99202-6222,4.2,136,-5.526879399999999,-47.478180599999995,maranhão
14,SmartCell Celulares Imperatriz,,ChIJkbOgxjRfxZIRES9EmH4rCHE,"R. Ceará, N.1029 - Mercadinho, Imperatriz - MA, 65901-260",N/A,N/A,+55 99 99150-7703,4,4,-5.5289424,-47.477388499999996,maranhão
16,Trocaphone,https://trocacelulares13.wixsite.com/trocaphone,ChIJcb0byglfxZIRS5Fk6v1P4rU,"R. Urbano Santos, 155 - Centro, Imperatriz - MA, 65900-410",N/A,N/A,+55 99 99146-4893,4.6,39,-5.524778899999999,-47.4857617,maranhão
17,Hotcel Assistência Técnica,https://hotcelassistenciama.com.br/,ChIJNQRfdbJfxZIRHSr88HhRF6k,"R. Piauí, 119 - Centro, Imperatriz - MA, 65901-600",N/A,N/A,+55 99 98128-7288,5,82,-5.5208352,-47.4846923,maranhão
1,JG CELL Atacado e Varejo,,ChIJb1z-IlpfxZIR3qPmRTFbMe4,"R. Duque de Caxias, 594 D - Vila Lobão, Imperatriz - MA, 65910",N/A,N/A,+55 99 99210-4703,5,12,-5.5095238,-47.4684819,maranhão
2,Kdu Celulares,,ChIJM0d1FghfxZIRilnOBq-sz3Y,"R. Ceará, 1043 - Nova Imperatriz, Imperatriz - MA, 65907-090",N/A,N/A,+55 99 98422-6070,4.2,9,-5.5289607,-47.4773182,maranhão
3,Lorin Variedades,,ChIJW3LKVx9fxZIR9Xp7i6k4l9I,"Av. Getúlio Vargas - Centro, Imperatriz - MA, 65901-450",N/A,N/A,+55 99 99117-4522,4.2,81,-5.5288729,-47.481167799999994,maranhão
5,Shock Cell Celulares,,ChIJe823R8VfxZIRXZ9V--yDFuI,"R. Duque de Caxias, 233c - Vila Lobão, Imperatriz - MA, 65910-150",N/A,N/A,+55 99 98480-5073,5,1,-5.5138045,-47.4653711,maranhão
8,Junior Celulares,,ChIJWVERl09fxZIRhEgkxqepBfE,"R. Ceará, 554 - Nova Imperatriz, Imperatriz - MA, 65907-090",N/A,N/A,+55 99 98484-8393,5,1,-5.5171961,-47.485787099999996,maranhão
9,Magazine Luiza,https://lojas.magazineluiza.com.br/filiais/1244?utm_source=google&utm_medium=maps&utm_campaign=gmb,ChIJp_RoiQVfxZIRzUUGh91_oSk,"Imperial Shopping Center Rodovia - BR-010, 100 - Jardim Sao Luiz, Imperatriz - MA, 65913-015",N/A,N/A,+55 99 2101-2230,4.2,131,-5.528773,-47.469777,maranhão
10,Rei do iPhone,,ChIJ1QQULQBfxZIRsa4gXyi2vN4,"Av. Dorgival Pinheiro de Sousa, 1746 - Centro, Imperatriz - MA, 65903-270",N/A,N/A,,5,2,-5.5219645,-47.4730609,maranhão
13,ANDRADE CELULARES,,ChIJDRc54q1fxZIRbzCWNAVQCE0,"Rua ceara entre Tamandaré e Monte Castelo número 486B - Mercadinho, Imperatriz - MA, 65914-045",N/A,N/A,+55 99 98263-6707,5,3,-5.5306733,-47.4764615,maranhão
14,Inbox,,ChIJQU4bLbBfxZIRWLg5SNAK0lg,"R. José Bonifácio, 1996-2062 - Jardim Sao Luiz, Imperatriz - MA, 65913-030",N/A,N/A,+55 99 99126-4403,,,-5.5290086,-47.4702197,maranhão
15,Smart ITZ,,ChIJXSjvvtNfxZIRRB2C70y-aYU,"R. Cel. Manoel Bandeira, 2170 - Centro, Imperatriz - MA, 65900-010",N/A,N/A,+55 99 98265-2505,5,7,-5.5341803,-47.4855994,maranhão
17,Julin Acessorios,,ChIJdyymMblfxZIRkD03xcq5B1M,"Av. Getúlio Vargas, 1143 - Centro, Imperatriz - MA, 65901-550",N/A,N/A,+55 99 99150-9218,4.7,50,-5.5283552,-47.480658399999996,maranhão
18,Lipe Cell,,ChIJTUoBxMpfxZIRhh9WDGU9cms,"R. Paraíba, 984 - Santa Rita, Imperatriz - MA, 65907-260",N/A,N/A,,5,3,-5.511745299999999,-47.4873712,maranhão
19,KaizenPhone | Assistência Técnica Especializada 📱💻🔬,https://www.instagram.com/kaizenphonee?igsh=ZHZoYjFneW5jZDV5&utm_source=qr,ChIJ-5zGLMpfxZIRT0TGKX_0NKs,"Presidente - Av. Tancredo Neves - Vila Nova, Imperatriz - MA, 65913-230",N/A,N/A,+55 99 98472-8187,4.7,31,-5.5251224,-47.4615023,maranhão
20,Top Celular Acessorios / Assistência Técnica,,ChIJZRAxWQBfxZIR9VouCtMFBdw,"Av. Getúlio Vargas, 1145 - Centro, Imperatriz - MA, 65901-550",N/A,N/A,+55 99 99218-0496,5,2,-5.5283049,-47.4806582,maranhão
1,Smart Pix assistência técnica smartphone,,ChIJKZ-imeNfxZIRFkLpQOUu_tI,"Av. Bernardo Sayão - Nova Imperatriz, Imperatriz - MA, 65907-090",N/A,N/A,+55 99 98433-0369,4.5,4,-5.5218929,-47.4904079,maranhão
3,Paulo acessórios,,ChIJN_LP9XNfxZIRcXHnQ4EIoVQ,"Tua Paraiba 256, jucçara - Centro, Imperatriz - MA, 65901-280",N/A,N/A,,,,-5.519147299999999,-47.4822777,maranhão
4,SpeedTech Assistência Técnica,,ChIJe3a5441fxZIRYzdslcReX0I,"R. Ceará, 239 - Nova Imperatriz, Imperatriz - MA, 65907-090",N/A,N/A,+55 99 98489-4234,5,4,-5.5196748,-47.4841978,maranhão
5,Micro Celular - Pacheco,,ChIJy_qXcNpfxZIRFIxBiQ7Du4E,"R. Minas Gerais, SN - Centro, Imperatriz - MA, 65903-360",N/A,N/A,+55 99 98141-8000,1,1,-5.523353999999999,-47.4731673,maranhão
6,FlashCell,,ChIJG-SVDRZfxZIRulwVf777_z8,"R. Simplício Moreira, 3589 - Nova Imperatriz, Imperatriz - MA, 65907-190",N/A,N/A,+55 99 98207-8397,5,2,-5.543177,-47.474098999999995,maranhão
7,"TecSupport ""NÃO SOMOS DA AUTORIZADA SAMSUNG""",https://www.instagram.com/tecsupport_pro?igsh=eG0xajcza3llZmhy,ChIJ8d-1-6dfxZIRbDacpOHnt9k,"Av. Dorgival Pinheiro de Sousa, 569 - Vila Lobão, Imperatriz - MA, 65910-010",N/A,N/A,,4.3,9,-5.5165033999999995,-47.4666698,maranhão
8,Loja Vivo,https://vivo.com.br/para-voce/ajuda/mais-ajuda/encontre-uma-loja?_gl=1*pwmg40*_gcl_aw*R0NMLjE3MzI1MjU4MzMuRUFJYUlRb2JDaE1Jek15VjBkdjFpUU1WMDJ6ZEFoMTBNU0plRUFFWUFTQUFFZ0lsWXZEX0J3RQ..*_gcl_dc*R0NMLjE3MzI1MjU4MzMuQ0t6LV90ZmI5WWtERlRWSzNRSWQxUUVEY1E.*_gcl_au*MTUzOTUwNjgxNS4xNzMxNjIxOTE3*_ga*MjEyMzgwODk5Mi4xNzMxNjIxOTI5*_ga_JWH50P3VES*MTczMjkwMzAzNC40LjEuMTczMjkwMzA4OS41LjAuMA,ChIJPW8o5gpfxZIR_jzu5rwQCsM,"Av. Bernardo Sayão, 1406 - Nova Imperatriz, Imperatriz - MA, 65907-000",N/A,N/A,+55 99 99134-9464,3.7,56,-5.5186576,-47.4864661,maranhão
9,Épou Soluções,https://www.instagram.com/epousolucoes/,ChIJvdt8m-lfxZIR-md2Z-oop40,"Av. Dorgival Pinheiro de Sousa, 1746 - sala 07 - Entroncamento, Imperatriz - MA, 65903-270",N/A,N/A,+55 99 99127-5314,5,1,-5.521638299999999,-47.4731831,maranhão
10,Assistência Técnica - Go Phone,,ChIJBwXsl-dfxZIRzwwPZMkIJnY,"Av. Getúlio Vargas, Calçadão, 722 - Centro, Imperatriz - MA, 65901-430",N/A,N/A,+55 99 98162-2064,5,8,-5.5309189,-47.483425999999994,maranhão
11,Connect Cell Assistência Técnica,,ChIJSX22CQBfxZIRFF-wjH3CKiE,"R. Dom Pedro II - Bacuri, Imperatriz - MA, 65916-280",N/A,N/A,+55 99 99114-2089,,,-5.5420852,-47.4798542,maranhão
12,Estação-Celular,,ChIJl2q82tFfxZIRXbFpJ4_v40Q,"R. Manoel Fernandes - Cinco Irmãos, Imperatriz - MA, 65904-344",N/A,N/A,+55 99 98123-5605,,,-5.5040011,-47.4815617,maranhão
14,BYTECEL MANUTENÇÃO EM CELULAR,,ChIJ-xj_0FdfxZIRMnD8x-bMSvM,"R. Assembléia de Deus, 226 - Vila Lobão, Imperatriz - MA, 65910-180",N/A,N/A,+55 99 98807-2266,3.3,3,-5.5094536,-47.4645735,maranhão
15,Na Tech Celulares Assistência Técnica,,ChIJ4W2CTjNexZIRuF-N40sfgcs,"Nova Imperatriz, Imperatriz - MA, 65907-420",N/A,N/A,,,,-5.5084554,-47.4885855,maranhão
16,Arrumador de celular,,ChIJLaLiYgD1z5IRrOJnSZ3VNZ4,"R. Laranjeiras, 30 - Parque Santa Lucia, Imperatriz - MA, 65912-320",N/A,N/A,,,,-5.5209186,-47.443629699999995,maranhão
17,Rapidex celular e informática,,ChIJExrhy6FfxZIR9maLuNwq1R8,"R. Piauí - Bacuri, Imperatriz - MA, 65901-600",N/A,N/A,+55 99 98122-9079,,,-5.537241799999999,-47.4727392,maranhão
20,Megainfo,https://www.megainfo.com.br/,ChIJ3Wg_5gNfxZIRHR3bX0HDBPk,"R. Godofredo Viana, 1088 - Centro, Imperatriz - MA, 65901-480",N/A,N/A,+55 99 2101-1400,4.1,441,-5.5338251,-47.4846662,maranhão
1,Casa do Celular - Imperatriz,http://www.casadocelular.com.br/,ChIJuVBjVRFfxZIRKGniKtBLAg0,"Av. Getúlio Vargas, 929 - Centro, Imperatriz - MA, 65901-550",N/A,N/A,+55 99 98407-4467,4,49,-5.5295891,-47.482132199999995,maranhão
2,Barão Celular e Acessórios,https://linktr.ee/baraocelulareacessorios,ChIJB_pR8V1fxZIRcCC_FtCcXB4,"Av. Getúlio Vargas, nº 722 - Loja 12 e 14 - Centro, Imperatriz - MA, 65901-450",N/A,N/A,+55 99 98179-8464,5,6,-5.5310983,-47.4832396,maranhão
3,S TECH CELULARES,https://www.stechcelulares.com.br/,ChIJh_ydtkNfxZIRSF7my8AIJKM,"R. Ceará, 923 - Mercadinho, Imperatriz - MA, 65901-063",N/A,N/A,+55 99 99124-4272,4.3,61,-5.5280968,-47.477956999999996,maranhão
6,RW CELULARES,http://www.facebook.com/rwcelulares,ChIJqeV4pAdfxZIRhDnGSo6GiO0,"R. Luís Domingues, 1158D - Centro, Imperatriz - MA, 65901-430",N/A,N/A,+55 99 98528-0082,4.7,96,-5.5297522,-47.480556199999995,maranhão
11,PHONE.COM STORE,https://phonecomitz.blogspot.com/,ChIJC-a6IQFfxZIRE7j0mu90kbo,"Av. Getúlio Vargas, 560 - Centro, Imperatriz - MA, 65901-450",N/A,N/A,+55 99 3523-3645,3,10,-5.5319769,-47.484952899999996,maranhão
15,Duarte Celulares,http://www.instagram.com/duartecelulares,ChIJAa6QW01exZIRyggYy2LPjA0,"Av. Bernardo Sayão, 1097 - Nova Imperatriz, Imperatriz - MA, 65907-000",N/A,N/A,+55 99 98104-0102,4,59,-5.520567499999999,-47.489168,maranhão
17,Paul Smartphones,https://www.instagram.com/invites/contact/?i=1e8meu1fwewwt&utm_content=2o0jpua,ChIJC95k-6dfxZIREUyMSgtnVWI,"sub esquina com - Rua Ceará, R. Luís Domingues - Centro, Imperatriz - MA, 65901-260",N/A,N/A,+55 99 98244-9767,,,-5.528019,-47.4782096,maranhão
18,Centro Cell,https://www.centrocellfranquia.com.br/,ChIJmzvEFV5fxZIROaoZr50vQJ8,"Av. Getúlio Vargas, 683 - Centro, Imperatriz - MA, 65901-450",N/A,N/A,+55 99 99232-4769,5,1,-5.530863699999999,-47.483758699999996,maranhão
20,Rei Dos Celulares,,ChIJCfEFTbBfxZIRwHcZnbVJ13U,"Galeria Calçadão, Av. Getúlio Vargas, 536 - BOX 03 - Centro, Imperatriz - MA, 65901-450",N/A,N/A,+55 99 98457-4810,1,1,-5.531314699999999,-47.484099199999996,maranhão
5,Mega cell,,ChIJ-2zCZU9fxZIRrI-qFgCuPAw,"Rua Sousa Lima, 603 - Centro, Imperatriz - MA, 65900-320",N/A,N/A,,4.3,28,-5.530009199999999,-47.4835555,maranhão
13,Lipeh Imports | iPhone e Xiaomi | Assistência Técnica | Imperatriz,https://tinyurl.com/lipeh-imports,ChIJYyTGB_5fxZIRFE9UQWzamWg,"Av. Bernardo Sayão, 1679 - Nova Imperatriz, Imperatriz - MA, 65907-000",N/A,N/A,+55 99 98517-4164,5,458,-5.516784899999999,-47.4845012,maranhão
13,Atacadão,https://www.atacadao.com.br/,ChIJa168zkVfxZIRvfz3zGoC2rI,"Parque Freitas Jardim, BR-010, s/n - Morada do Sol, Imperatriz - MA, 65907-230",N/A,N/A,+55 99 3529-3890,4.2,2471,-5.5485035,-47.4617332,maranhão
15,Luiggi Tech,https://www.instagram.com/luiggitech,ChIJt-FS6fZfxZIRzxF4qzg9gK4,"R. Carolina, 288 - Vila Cafeteira, Imperatriz - MA, 65911-510",N/A,N/A,+55 99 99177-8780,,,-5.491022,-47.460998599999996,maranhão
20,Alex Celular,,ChIJZxeoKaZfxZIRobHrnqy31yo,"R. Rio Grande do Norte, 731 - Centro, Imperatriz - MA, 65901-435",N/A,N/A,+55 99 3528-4376,5,3,-5.526027,-47.47815,maranhão
7,INOVATECH CELULARES,,ChIJf773WjlhxZIRjAnuwKxplX8,"R. São Vicente de Paula - São José, Imperatriz - MA, 65900-001",N/A,N/A,+55 99 99192-8990,,,-5.4949654,-47.486413,maranhão
8,Lentech Assistência técnica,,ChIJw02UM2ZhxZIR7b2isabMRDQ,"Av. Industrial, 505 - Santa Rita, Imperatriz - MA, 65919-230",N/A,N/A,,4,2,-5.4971989,-47.49111,maranhão
10,Imperador cell,,ChIJ6-QeR_1hxZIRjZuE9Nhw8Bo,"Av. Newton Bello, 553 - Santa Rita, Imperatriz - MA, 65919-265",N/A,N/A,+55 99 99108-3758,5,2,-5.4973832,-47.4965123,maranhão
19,MM acessórios,,ChIJmXRYsitfxZIRf2BSSPHVO4o,"R. Osvaldo Cruz, 112A - Bacuri, Imperatriz - MA, 65916-170",N/A,N/A,+55 99 98471-2185,5,5,-5.5379339,-47.4708845,maranhão
11,Cláudio celulares assistência técnica e acessórios,,ChIJ3wObxExhxZIRCzVNxEJtrTo,"Av. Mutirão - MUTIRÃO, Imperatriz - MA",N/A,N/A,+55 99 99141-3193,,,-5.493445599999999,-47.4546016,maranhão
3,JL Cell ASSISTÊNCIA TECNICA Celulares e Informatica,https://wa.me/p/8836706769739065/559881247841,ChIJr5HLmdqb9gcRVwHEundSs70,"R. Treze, 21 - Cidade Olímpica, São Luís - MA, 65110-000",N/A,N/A,,5,3,-2.6067613,-44.1802231,maranhão
6,BRYANCELL,,ChIJgxRo4V-b9gcR0QMDTlXrTyU,"R. Treze B, QUADRA 98 - CASA 20 - Cidade Olímpica, São Luís - MA, 65058-543",N/A,N/A,+55 98 98329-7147,4.8,5,-2.5992303,-44.1813627,maranhão
9,Hd Celulares,,ChIJsY1h1Q2a9gcRJ-R6GEuXRgo,"Estr. da Mata - Vila da Mata, São José de Ribamar - MA, 65110-000",N/A,N/A,,4.5,2,-2.5751955,-44.1862657,maranhão
17,Ruan Celulares,,ChIJO3wG3zqb9gcRokEL_WwJ_kA,"casa 3, Av. Jailson Sousa Viana, São Luís - MA",N/A,N/A,+55 98 93257-6972,4.8,4,-2.5909222,-44.1854854,maranhão
11,MykaCELL | Assistência Técnica Maiobão | Conserto de celular Android,http://mykacell.com.br/,ChIJ7RVgjReX9gcRYSVTcHkXJgc,"Av. Doze, 17A - Qd 118, Sl 03 - Maiobão, Paço do Lumiar - MA, 65130-000",N/A,N/A,+55 98 98488-1789,4.9,111,-2.5514715999999997,-44.1708547,maranhão
13,MARIO CELULARES,https://www.youtube.com/channel/UC1HOjeatRjkEGWRkhzcOCYA?view_as=subscriber,ChIJ6egY0AeX9gcRadWjrBqrviE,"R. do Carpinteiro, 229 - Conj. Abdalla I, Paço do Lumiar - MA, 65130-000",N/A,N/A,+55 98 98183-1507,5,59,-2.5319727999999997,-44.147676,maranhão
15,LIG celulares,,ChIJIzVNfIib9gcRGQpALn08dGE,"Av este externa, 12C - Q 8D - Cidade Operária, São Luís - MA, 65058-078",N/A,N/A,+55 98 99205-5558,5,1,-2.5762063,-44.1972847,maranhão
16,Rodrigo Celulares,https://www.instagram.com/rodrigocelulares_oficial/,ChIJ5wL96yqR9gcRfOyMjvp7NYE,"R. 37 - Maiobão, Paço do Lumiar - MA, 65130-000",N/A,N/A,+55 98 98278-4700,4.4,36,-2.5399548999999997,-44.1734058,maranhão
17,Luh Capas Acessórios,,ChIJIxYkY3Ga9gcRtDIBjyVopBY,"Cidade Operária, São Luís - MA, 65058-058",N/A,N/A,,4.5,2,-2.5742529,-44.1960122,maranhão
18,Start Cell,,ChIJT_24lUKa9gcRBXL630_rqlw,"Av. Este Cento e Três, 200 - Cidade Operária, São Luís - MA, 65072",N/A,N/A,+55 98 99611-8274,5,1,-2.5787638999999998,-44.197873699999995,maranhão
10,REI DO CELULAR,,ChIJsYGnoUqX9gcRyWGqoSNKKgM,"Av. Mascarenhas de Moraes - Vila Sarney Filho I, São José de Ribamar - MA, 65110-000",N/A,N/A,+55 98 98528-6045,,,-2.5527085,-44.1717276,maranhão
11,Opção Celular,,ChIJwQD5Uq2R9gcR9Je1p7hDc7g,"Próximo ao Número 100, Av. Centro Comercial - COHAB Anil II, São Luís - MA, 65052-790",N/A,N/A,+55 98 98867-5189,5,3,-2.5390783,-44.2189906,maranhão
12,Gigante Cell | Assistência Técnica e Acessórios,https://www.instagram.com/gigante.cell/,ChIJPeCQ21Gb9gcRe8Gd8CQ4O1k,"Av. Principal Jardim Amẻrica, 106 A - Jardim América, São Luís - MA, 65058-284",N/A,N/A,+55 98 98143-0575,4.8,11,-2.5843268,-44.1902322,maranhão
16,Hd Celulares Assistência Técnica Especializada,,ChIJCx5D3ZmQ9gcRe9v9tyKBxJs,"Av. Principal, 03 - Vila Cafeteira, São José de Ribamar - MA, 65110-000",N/A,N/A,,,,-2.5624476,-44.194521699999996,maranhão
18,Gabys celular,,ChIJfe2iTJ2R9gcRaFQ_o4P6AY4,"centro comercial - Av. do Fio, 12 - Novo Cohatrac, São José de Ribamar - MA, 65110-000",N/A,N/A,+55 98 98181-6656,,,-2.5314408999999998,-44.1942105,maranhão
19,MI CELL STORES,,ChIJF593jy2b9gcR7wLngygYy7o,"Rua 15, casa 02 quadra 17 Loja 01 - Jardim América, São Luís - MA, 65058-309",N/A,N/A,+55 98 98863-9765,4.7,9,-2.5845040999999997,-44.1955375,maranhão
20,Stallonne cell assistência técnica em celular,,ChIJvesGtxCb9gcR8LAxHhyipFo,"Av. Quatro, 53a - Geniparana, São Luís - MA, 65010-000",N/A,N/A,+55 98 99982-9420,,,-2.5840834999999998,-44.1863939,maranhão
2,Celular Mania,,ChIJhRlcosyQ9gcRg_jrElRy1z8,"Maiobão, Paço do Lumiar - MA, 65054-005",N/A,N/A,,4.3,3,-2.5517173,-44.173112499999995,maranhão
9,MS CELULARES,https://wa.me/5598982048336,ChIJWdWTCteR9gcRIo0LK10tbtM,"R. 101, quadra 78 - casa 25 - Maiobão, Paço do Lumiar - MA, 65130-000",N/A,N/A,+55 98 98204-8336,5,1,-2.5411588,-44.1720555,maranhão
15,Visualcell Acessórios E Assistência,,ChIJdUcV44iR9gcRBIMEv9oiSkY,"Av. 06, qd 117 - n 25 - Maiobão, Paço do Lumiar - MA, 65130-000",N/A,N/A,+55 98 98532-9975,5,13,-2.55191,-44.1700829,maranhão
16,Ponto do Celular,,ChIJfQ7ECLGX9gcRGCrHKS4T4oo,"Avenida dos marceneiros Roseana, Paço do Lumiar - MA, 65130-000",N/A,N/A,+55 98 99116-3730,5,1,-2.5310764,-44.147017,maranhão
17,Celular Store,,ChIJ_T5_LyuR9gcRGN7agAh5juk,"Maiobão, Paço do Lumiar - MA, 65130-000",N/A,N/A,,,,-2.5390270999999998,-44.1726053,maranhão
18,Sra. Smart Acessórios Para Celular,,ChIJ3bNtl-OX9gcREOuK0UNWJFk,"R. Jaguarana - Res. Turiúba, São José de Ribamar - MA, 65110-000",N/A,N/A,,5,3,-2.5638395999999997,-44.0998348,maranhão
19,Boutique do Celular,https://instagram.com/boutiquedocelular__?igshid=jbgyy5yyvbyk,ChIJadeXUHCR9gcRnNTvJehzOBE,"Av. 03, 100 - Maiobão, Paço do Lumiar - MA, 65130-000",N/A,N/A,+55 98 98606-5698,4,4,-2.5376567,-44.1731219,maranhão
20,Brasil celulares,,ChIJqehf42WX9gcR7Pm8U3bkeP0,"Avenida dos carajás Q 14 C15 upouaçu - Maiobão, Paço do Lumiar - MA, 65130-000",N/A,N/A,+55 98 98738-6121,5,1,-2.5308405,-44.162070799999995,maranhão
1,Club do Smart,,ChIJSxX7q2yD9gcRhPNPA0MIWHo,"R. 37 - Maiobão, Paço do Lumiar - MA, 65130-000",N/A,N/A,+55 98 98443-8181,2.3,3,-2.5399409,-44.173360599999995,maranhão
2,I9VE SMARTPHONE ASSISTÊNCIA TÉCNICA E ACESSÓRIOS,https://whats.link/i9vesmartphone,ChIJeapWOYGX9gcRMYcv5gDOXZU,"Av. 04 qd 57 casa 31-b - Maiobão, Paço do Lumiar - MA, 65130-000",N/A,N/A,+55 98 99220-5312,5,3,-2.5408136999999997,-44.1691827,maranhão
3,Celular,,ChIJO40RT-CX9gcRRRthlcjZi3k,"R. Sessenta e Tres - Maiobão, Paço do Lumiar - MA, 65130-000",N/A,N/A,,,,-2.5429448,-44.168206399999995,maranhão
9,Rei Das Capas e Peliculas e Acessórios,,ChIJ6QeqVy2X9gcRN45l33k-95Q,"Av. 03, 70, R. 9, S E - Maiobão, Paço do Lumiar - MA, 65130-000",N/A,N/A,+55 98 98895-7230,,,-2.5372554999999997,-44.172498,maranhão
10,Império dos Celulares,,ChIJCcfB3KaX9gcRmxofR-pmLlo,"Av. Mascarenhas de Moraes - Maiobão, Paço do Lumiar - MA, 65110-000",N/A,N/A,+55 98 98913-1654,,,-2.5525495,-44.171753599999995,maranhão
11,Claro Maiobão,,ChIJhRPcSnuR9gcR7yJhxmln8Cg,"Av. 13 - Maiobão, Paço do Lumiar - MA, 65130-000",N/A,N/A,+55 98 98422-8181,3.5,6,-2.5445588999999997,-44.175255299999996,maranhão
15,Americanas,https://www.americanas.com.br/lojas-proximas/33014556000196/1199?ordenacao=topSelling&utm_medium=meunegocio&utm_source=google&utm_campaign=marca:acom;midia:meunegocio;formato:00;subformato:00;idcampanha:pacotelocal&epar=mn_00_00_go_pacotelocal,ChIJgTG_L2ufpgARUAbgxIGLCfY,"Av. Contôrno Norte, 145 - Cohatrac IV, São Luís - MA, 65054-375",N/A,N/A,,4.1,625,-2.5346406,-44.1996703,maranhão
16,TECHnology Assistência Técnica E Assessórios Para Celular,,ChIJX3P1pFGR9gcRDuPtoh-6Yy8,"Av. 03 - Maiobão, Paço do Lumiar - MA, 65130-000",N/A,N/A,+55 98 98801-8187,3,4,-2.5372612,-44.172425499999996,maranhão
19,DL Cell acessórios e assistência técnica,https://instagram.com/dlcasestore?igshid=YmMyMTA2M2Y=,ChIJacifTmqR9gcRaknN_CjQUqg,"Avenida 01, N° 09, São Luís - MA, 65058-000",N/A,N/A,+55 98 98722-2197,4.8,5,-2.5849615,-44.1858177,maranhão
1,Loja Vivo,https://vivo.com.br/para-voce/ajuda/mais-ajuda/encontre-uma-loja?_gl=1*pwmg40*_gcl_aw*R0NMLjE3MzI1MjU4MzMuRUFJYUlRb2JDaE1Jek15VjBkdjFpUU1WMDJ6ZEFoMTBNU0plRUFFWUFTQUFFZ0lsWXZEX0J3RQ..*_gcl_dc*R0NMLjE3MzI1MjU4MzMuQ0t6LV90ZmI5WWtERlRWSzNRSWQxUUVEY1E.*_gcl_au*MTUzOTUwNjgxNS4xNzMxNjIxOTE3*_ga*MjEyMzgwODk5Mi4xNzMxNjIxOTI5*_ga_JWH50P3VES*MTczMjkwMzAzNC40LjEuMTczMjkwMzA4OS41LjAuMA,ChIJy30T0Xe99gcRF468FLMO8F0,"Estrada de São José de Ribamar, 1000 - Loja 185 - Saramanta, São José de Ribamar - MA, 65110-000",N/A,N/A,+55 98 99199-0066,3,6,-2.545182,-44.084529499999995,maranhão
3,CELULAR E CIA,,ChIJ82khPGm99gcRtfunbfXk1E8,"Tv. do Panaquatira, 51 - Moropóia, São José de Ribamar - MA, 65110-000",N/A,N/A,+55 98 99193-7643,,,-2.551288,-44.0682538,maranhão
4,Dr. Celular - Assistência,,ChIJdZm2BKi99gcRx2HWKAQxNRI,"Avenida panaquatira 440 b - J camara, São José de Ribamar - MA, 65939-000",N/A,N/A,+55 99 99612-8400,4,2,-2.5454497,-44.0669275,maranhão
6,CLINICA E ESTETICA DO CELULAR,,ChIJRRwRxhe99gcRA2eZi1bQK-U,"Av. Gonçalves Dias, n-883 - Moropia, São José de Ribamar - MA, 65110-000",N/A,N/A,+55 98 99904-0400,4.3,3,-2.5565876999999997,-44.057393,maranhão
7,PAULO CELULARES,,ChIJpUmcDCSX9gcRN5qgxr_NsYI,"Vila Nojosa, São José de Ribamar - MA, 65110-000",N/A,N/A,,5,2,-2.5637931,-44.1295827,maranhão
8,GONÇALVES CELULARES,,ChIJ8X38Lym99gcRrAibkOwJmDg,"Av. Clodomir Cardoso, 2049 - Outerio, São José de Ribamar - MA, 65110-000",N/A,N/A,+55 98 99102-1417,,,-2.5526942,-44.0682409,maranhão
7,Magazine Luiza,https://lojas.magazineluiza.com.br/filiais/1248?utm_source=google&utm_medium=maps&utm_campaign=gmb,ChIJfaHVu5699gcRpKRFrZzlSck,"Av. Gonçalves Dias, 521 - Centro, São José de Ribamar - MA, 65110-000",N/A,N/A,+55 98 3224-1798,4.3,250,-2.5593578,-44.055964599999996,maranhão
8,Eletro Mateus,,ChIJeQg0kr299gcRgovOGr3YcQM,"Moropóia, São José de Ribamar - MA, 65110-000",N/A,N/A,+55 98 98440-0268,3.7,3,-2.5528907999999997,-44.0673104,maranhão
2,SMARTPHONE PIRÂMIDE,https://wa.me/message/2VXXJHUNDTUJJ1,ChIJTfUKeNeV9gcRnWrAx26aFhI,"Av. Dois, 1818 - Pirâmide, Paço do Lumiar - MA, 65130-000",N/A,N/A,+55 98 98400-2304,4.9,33,-2.476387,-44.160189599999995,maranhão
3,Vagner celular,,ChIJ04OB7feX9gcRnjyEaRCfJhU,"Vila Piramide, Paço do Lumiar - MA, 65130-000",N/A,N/A,+55 98 99139-5862,,,-2.4804733999999997,-44.148291,maranhão
6,Stilocelular Assistência Tecnica,,ChIJJ_Dz5u2T9gcRZ92-XD2n15g,"Av. Carlos Augusto, 102b - Parque Jair, São José de Ribamar - MA, 65110-000",N/A,N/A,+55 98 98920-7857,4.5,2,-2.5045219999999997,-44.1813156,maranhão
9,Mais Smartphone,,ChIJbVs-ltqW9gcRdpTORj8KDN0,"Av. Contôrno Leste - Conj. Hab. Parana, Paço do Lumiar - MA, 65130-000",N/A,N/A,,,,-2.5353228,-44.161715799999996,maranhão
11,Tudo cell,https://www.instagram.com/tudocell_oficiall?igsh=MWMxaG9wOG5iZHExNw==&utm_source=qr,ChIJJRHLKtGW9gcR8bSSWMkELSo,"Av. Contôrno Sul, Quadra 05 - Número 44 - Maiobão, Paço do Lumiar - MA, 65137-000",N/A,N/A,+55 98 98464-7712,4.9,17,-2.537862,-44.1649593,maranhão
16,MCELL: Acessórios para celular,,ChIJfwbBlqyV9gcROh5MnBTBUpI,"Av. Um, 641 - Alto do Farol, Raposa - MA, 65138-000",N/A,N/A,+55 98 98738-9493,2.7,3,-2.4713548,-44.163350099999995,maranhão
1,Casa do Celular - Rio Poty,http://www.casadocelular.com.br/,ChIJHVuHorc5jgcR08UxtWppACA,"Av. Mar. Castelo Branco, 911 - Porenquanto, Teresina - PI, 64004-087",N/A,N/A,+55 86 99521-4606,4.2,46,-5.0767501,-42.802212999999995,maranhão
2,World Cell,,ChIJJQqcwZUwjgcRKISblDrOY4Y,"Q. 1, 63 - Casa 17 - Itararé, Teresina - PI, 64077-190",N/A,N/A,+55 86 3236-3699,4.3,3,-5.1050559,-42.764865199999996,maranhão
3,Lojinha do Celular - Quiosque no Teresina Shopping Piso L2,,ChIJa2Znknk5jgcRo7xSSeQnnRo,"Av. Raul Lopes - Noivos, Teresina - PI, 64046-902",N/A,N/A,+55 86 99936-3894,5,2,-5.0853541,-42.7903172,maranhão
4,"UNICELL - UNIVERSO DOS ACESSÓRIOS, CELULARES E ELETRÔNICOS",,ChIJH4C14Zg3jgcRiefSr0gFhyY,"Av. Barão de Castelo Branco, 2135 - Cristo Rei, Teresina - PI, 64014-325",N/A,N/A,+55 86 99927-6957,5,2,-5.1027217,-42.7905624,maranhão
5,"Ibyte Teresina Shopping: Notebook, PC, Games, Celulares, TV Smart em Teresina",https://www.ibyte.com.br/,ChIJa_R7kIk5jgcRDwMFmPXoczY,"Av. Raul Lopes, 1000 - Noivos, Teresina - PI, 64046-902",N/A,N/A,+55 85 4020-5000,4.2,940,-5.084437599999999,-42.7909496,maranhão
6,Tecnew Celulares,,ChIJp8u254s3jgcRBr3-Nkdlisk,"R. Ten. Antônio Corrêa da Silva, 825 A - Parque Piaui, Timon - MA, 65636-640",N/A,N/A,+55 86 98873-3578,4.8,62,-5.0893502,-42.839949399999995,maranhão
7,iProcases,https://api.whatsapp.com/send?phone=5586994077015,ChIJkdkEUfU5jgcRfD9nfkzrphU,"R. Paissandu, 1226 - 1 - Centro (Sul), Teresina - PI, 64001-120",N/A,N/A,+55 86 99407-7015,5,25,-5.092569999999999,-42.813201899999996,maranhão
8,WL CELL PRIME,https://www.instagram.com/wlcellprime/,ChIJxx1a1945jgcRtEFDhzdDSZs,"Av. Tiúba, 1301 - Pedro Patrício, Timon - MA, 65634-400",N/A,N/A,+55 86 99975-6777,4.8,51,-5.1123063,-42.8465026,maranhão
9,Tokcell Prime - Teresina Shopping,https://www.instagram.com/tokcellprime/,ChIJHbcIl3Y5jgcRzZSVf0WNhfg,"Teresina Shopping, Av. Raul Lopes, 1000 - Loja 200 - Noivos, Teresina - PI, 64046-902",N/A,N/A,+55 86 98136-9359,3.6,11,-5.0852224,-42.7899931,maranhão
10,Shopping do celular,,ChIJ_ypyyvE3jgcRXK1-96cOSkk,"R. Benedito Leite, 1086 - Centro, Timon - MA, 65630-000",N/A,N/A,+55 86 99832-7994,5,1,-5.103834399999999,-42.828559,maranhão
11,Doutor iPhone Dirceu,,ChIJxQYAdEoxjgcRdbzs60b4_SY,"R. Ver. Emílio Ommati, 2292 - Loja 25 - Beira Rio, Teresina - PI, 64077-742",N/A,N/A,+55 86 99866-7071,4,3,-5.1075332,-42.768741399999996,maranhão
12,WE CELULAR,,ChIJYUGEsnc0jgcRtLYkb3JOtwU,"Angelim, Teresina - PI, 64034-360",N/A,N/A,,,,-5.1759523,-42.787563899999995,maranhão
13,"Nagem Teresina Shopping: Celulares, Eletros, Games, Notebooks, Teresina",https://www.nagem.com.br/,ChIJr6jr_u85jgcR1WT2-GNTMwE,"Av. Raul Lopes, 1000 - Noivos, Teresina - PI, 64046-902",N/A,N/A,+55 800 080 2021,4,175,-5.0849354,-42.789823299999995,maranhão
14,Geison Phone,https://instagram.com/geisonphone?utm_medium=copy_link,ChIJH8PLDpsxjgcRjreJmskTEK4,"Riverside Shoping - Av. Ininga, 1201 - Jóquei, Teresina - PI, 64048-110",N/A,N/A,+55 86 98163-7951,3.7,10,-5.0793428,-42.7955757,maranhão
15,Muniz Celulares,,ChIJG3QXkgg5jgcRsPEHApTk4hY,"R. Rui Barbosa, s/n - São Joaquim, Teresina - PI, 64004-410",N/A,N/A,+55 86 99472-3930,,,-5.074705499999999,-42.8254196,maranhão
16,Fcenter Celulares,,ChIJJwreip05jgcR8GgTEcEnRAc,"Av.Maranhão, 300 Box 78, Térreo, Teresina - PI, 64000-010",N/A,N/A,+55 86 99825-0340,5,17,-5.091702499999999,-42.8185594,maranhão
17,Samsung Experience Store,https://www.samsung.com/br/campaign/storecontacts/,ChIJi4XlYOk5jgcRPhRNomYcgvE,"Av. Mar. Castelo Branco, 911 - Porenquanto, Teresina - PI, 64003-087",N/A,N/A,+55 11 3230-3262,4.3,207,-5.0769807,-42.8021868,maranhão
18,Theresina Celular,https://www.instagram.com/theresinacelular/,ChIJWV1lo2o3jgcRMVySPRbfyOg,"Av. Miguel Rosa, 5162 - Vermelha, Teresina - PI, 64018-505",N/A,N/A,+55 86 3213-6468,3.9,412,-5.1041093,-42.805835699999996,maranhão
19,Opção Cell,,ChIJp_coalE4jgcRBlyOA3rJI64,"R. Rui Barbosa, 3906 - 1 - Matadouro, Teresina - PI, 64004-285",N/A,N/A,,4.5,2,-5.059793,-42.830702599999995,maranhão
20,Casa Do Celular - Teresina 2,http://www.casadocelular.com.br/,ChIJ18tnrMI3jgcRcwYNiy5DzG0,"R. Simplício Mendes, 210 - Centro (Sul), Teresina - PI, 64000-110",N/A,N/A,+55 86 98102-4327,3.2,97,-5.0905061,-42.8156219,maranhão
1,Loja Vivo Teresina Shopping,https://vivo.com.br/para-voce/ajuda/mais-ajuda/encontre-uma-loja?_gl=1*pwmg40*_gcl_aw*R0NMLjE3MzI1MjU4MzMuRUFJYUlRb2JDaE1Jek15VjBkdjFpUU1WMDJ6ZEFoMTBNU0plRUFFWUFTQUFFZ0lsWXZEX0J3RQ..*_gcl_dc*R0NMLjE3MzI1MjU4MzMuQ0t6LV90ZmI5WWtERlRWSzNRSWQxUUVEY1E.*_gcl_au*MTUzOTUwNjgxNS4xNzMxNjIxOTE3*_ga*MjEyMzgwODk5Mi4xNzMxNjIxOTI5*_ga_JWH50P3VES*MTczMjkwMzAzNC40LjEuMTczMjkwMzA4OS41LjAuMA,ChIJtTgtIwI6jgcRuUJ893Ef9ck,"Av. Raul Lopes, 1000 - Térreo - Loja 300/300A - Noivos, Teresina - PI, 64046-010",N/A,N/A,+55 86 98177-1058,3.7,719,-5.084734999999999,-42.789514,maranhão
2,"Mega Tech | Eletrônicos,Acessórios e Variedades | Conserto de celular",https://api.whatsapp.com/send?phone=558698143530&text=Vim%20do%20Google%20e%20quero%20mais%20informa%C3%A7%C3%B5es.,ChIJj3L_ov85jgcROk5G7tzgJ_c,"Rua Canindé, Conj. São Joaquim, Quadra 01 - Casa 13, Teresina - PI, 64004-215",N/A,N/A,+55 86 99814-3530,5,3,-5.0579988,-42.8320315,maranhão
3,Oficina do Celular Timon,,ChIJ5d8yxq43jgcRqexOJKd17Fk,"Av. Francisco Vitórino de Assunção, 1489 - Parque Piaui, Timon - MA, 65636-310",N/A,N/A,+55 86 98893-9699,5,3,-5.0990975999999995,-42.8367905,maranhão
4,Manoel celulares,,ChIJeTsS2YU3jgcRkRl_0m5Y3UU,"Av. Francisco Carlos Jansen, 923 - Parque Piaui, Timon - MA, 65631-240",N/A,N/A,+55 86 98805-3828,4.3,3,-5.0909368,-42.832908499999995,maranhão
5,SOS CELULARES,,ChIJIwHF9ZMwjgcRzrNkAB2fTog,"Av. Nações Unidas, 1144 - Vermelha, Teresina - PI, 64019-230",N/A,N/A,+55 86 99463-7482,5,3,-5.105668,-42.807801999999995,maranhão
6,Evertel Assistência técnica de celular,,ChIJBbjagQgxjgcRTWEMVYJJXqk,"Jd Jader barbalho - Q. Quarenta e Seis, casa 12 - Bela Vista, Teresina - PI, 64031-080",N/A,N/A,+55 91 98614-5093,4,1,-5.1369998,-42.7792831,maranhão
7,Casa do Celular - Teresina 1,http://www.casadocelular.com.br/,ChIJ74dIlYU3jgcR_w59qu3e434,"R. Barroso, 167 - Centro (Sul), Teresina - PI, 64001-130",N/A,N/A,+55 86 98148-1997,3.6,300,-5.0932397,-42.813411699999996,maranhão
8,Cell Company,https://cellcompany.com.br/,ChIJuVxa4OA5jgcRqgTO1sJ37WE,"R. Coelho de Resende, 855 - Marquês de Paranaguá, Teresina - PI, 64002-470",N/A,N/A,+55 86 2222-2323,4.2,642,-5.0808577,-42.81019,maranhão
9,Centro Cell - Teresina,,ChIJq7BhUSQ3jgcR2h5yCbNHd50,"R. Coelho Rodrigues, 1064 - Centro (Sul), Teresina - PI, 64000-000",N/A,N/A,+55 86 99481-2820,4.7,10,-5.09075,-42.8157269,maranhão
10,J J Celular,,ChIJuzs3gOwzjgcRKUcVKa_6dM4,"Angelim, Teresina - PI, 64034-640",N/A,N/A,,5,1,-5.1693621,-42.771175,maranhão
11,Servcell Celulares,,ChIJS-OU5o03jgcRf6V_OSggFEY,"R. Filomena Martins Nazareno Bringel, 861 - Parque Piaui, Timon - MA, 65631-280",N/A,N/A,+55 86 98879-7949,5,3,-5.093375399999999,-42.8397837,maranhão
12,Celular,,ChIJi2LA0r8_jgcRmtuaAyp2Yuk,"Av. Dr. Luís Píres Chaves, quadra 33 - casa 23/1 - Saci, Teresina - PI, 64020-290",N/A,N/A,+55 86 98864-6694,5,3,-5.1381841,-42.7996342,maranhão
13,THECNO MOBILE,,ChIJFRL4n2Q3jgcRc8k-WUf-Erc,"R. Barroso, 61 Sul - Centro (Sul), Teresina - PI, 64001-130",N/A,N/A,+55 86 3025-4313,4.7,80,-5.0923565,-42.813811099999995,maranhão
14,Alexandre Celular,,ChIJiw-aBWE3jgcRStbbGuJUidQ,"R. Félix Pacheco, 1778 - Centro (Sul), Teresina - PI, 64001-160",N/A,N/A,+55 86 99480-8363,5,1,-5.0912368,-42.808289699999996,maranhão
15,Americanas,https://www.americanas.com.br/lojas-proximas/33014556000196/L494?ordenacao=topSelling&utm_medium=meunegocio&utm_source=google&utm_campaign=marca:acom;midia:meunegocio;formato:00;subformato:00;idcampanha:pacotelocal&epar=mn_00_00_go_pacotelocal,ChIJp0lqOfA5jgcRNfQxCE26iqQ,"Dos - Av. Raul Lopes, 1000 - Noivos, Teresina - PI, 64046-902",N/A,N/A,,4.3,1763,-5.0864879,-42.788484499999996,maranhão
16,Status Cell The Assistência Técnica Especializada em Celulares e Tablets e notebook,,ChIJTZ75ekM3jgcR1q_nX9ReUIo,"Av. José dos Santos e Silva, 1237-1201 - Centro (Sul), Teresina - PI, 64001-300",N/A,N/A,+55 86 99502-7933,5,72,-5.095589299999999,-42.811692,maranhão
17,Cabral Cell,,ChIJ20wpSJM3jgcRUe3Zc10m8mc,"Av. Formosa, 36 - Formosa, Timon - MA, 65636-180",N/A,N/A,+55 86 98838-5082,4.9,30,-5.104491599999999,-42.8290018,maranhão
18,MundoFone ®,http://www.mundofone.com.br/,ChIJcfqIU_I5jgcR5T0FnEqnNU0,"Assistência Técnica em iPhone em Teresina Venda de iPhones em Teresina Assistência Técnica Apple em Teresina Assitência de Celulares Quebrados em Teresina - Av. Universitária, 750 - Loja 07 - Fátima, Teresina - PI, 64049-494",N/A,N/A,+55 86 98130-1977,5,1072,-5.0633777,-42.7963953,maranhão
19,Americanas,https://www.americanas.com.br/lojas-proximas/33014556000196/1210?ordenacao=topSelling&utm_medium=meunegocio&utm_source=google&utm_campaign=marca:acom;midia:meunegocio;formato:00;subformato:00;idcampanha:pacotelocal&epar=mn_00_00_go_pacotelocal,ChIJabCErXg3jgcR1syayKxle1I,"Av. Piauí, 850 - Lugar - Boa Vista, Timon - MA, 65630-901",N/A,N/A,,4.4,388,-5.091571699999999,-42.8242008,maranhão
20,Casa do Celular - Timon,http://www.casadocelular.com.br/,ChIJr5Nvf543jgcRqaCzaBXgvBQ,"Av. Pres. Médici, 312 - Parque Piaui, Timon - MA, 65631-390",N/A,N/A,+55 99 98544-8755,3.7,6,-5.0914522,-42.8342111,maranhão
2,BETO CELL PRIME,,ChIJAywOJ8A3jgcR3REP0H46zuQ,"Centro (Norte), Teresina - PI, 64001-090",N/A,N/A,,4.1,34,-5.0915962,-42.818704499999996,maranhão
3,Baruc Cell,https://www.instagram.com/invites/contact/?i=1hzpih969kn0o&utm_content=1f28vhp,ChIJK5RmGTg3jgcR43iyU6InD_c,"Rua César, R. Mal. Hermes da Fonseca, Quadra 36 - Casa 17B - Parque Piaui, Teresina - PI, 64025-130",N/A,N/A,+55 86 99910-3021,4.8,26,-5.1436923,-42.789758899999995,maranhão
4,Rei do Xiaomi,https://www.instagram.com/mmcelularesthe/,ChIJk4RfN5E3jgcRRp-xRnJKF4s,"Av. Maranhão, 300 - Box 118 - Centro (Norte), Teresina - PI, 64000-010",N/A,N/A,+55 86 99981-7344,4.5,17,-5.091436799999999,-42.818272199999996,maranhão
5,Assistência Técnica de Celular,,ChIJ0yMfkTQxjgcRj6GNqejhP3c,"Rua Farmacêutico José Pereira Lopes, parque, 2794 2580 - Itararé, Teresina - PI, 64078-785",N/A,N/A,+55 86 98150-0720,4.7,3,-5.102160899999999,-42.7439712,maranhão
6,Casa Do Celular- Teresina 2,http://www.casadocelular.com.br/,ChIJ2djkgTU3jgcRNSaphIkGBSk,"R. Simplício Mendes, 2010 - Centro (Sul), Teresina - PI, 64001-110",N/A,N/A,+55 85 3035-4084,3,6,-5.1092471999999995,-42.806948999999996,maranhão
7,Elite Cell,,ChIJpYHgXE0xjgcR8Qjn4QyeCbk,"Av. Walfrido Salmito, 2 - Quadra 116 - Casa 11 - Promorar, Teresina - PI, 64027-236",N/A,N/A,+55 86 99540-2500,4.3,40,-5.1459173,-42.7848749,maranhão
9,MOCAMBINHO CELULAR,,ChIJfTdLwfs5jgcRgaHT0ghSupc,"Av. Santa Joana Darc, 40 - Mocambinho, Teresina - PI, 64010-060",N/A,N/A,+55 86 98877-4741,5,14,-5.0334205999999995,-42.8170521,maranhão
11,Dirceu Celular,,ChIJB05f7JMwjgcRX2FouukF538,"Av. José Francisco de Almeida Neto, 2944 - Itararé, Teresina - PI, 64077-175",N/A,N/A,+55 86 98818-5509,4,21,-5.105492,-42.7605285,maranhão
12,Zé Filho Celulares,,ChIJH7BLc3w3jgcRtJlMAixeEtQ,"Shopping da Cidade - Av. Maranhão, 300 - Box 264 e 265, Térreo - Centro (Sul), Teresina - PI, 64000-010",N/A,N/A,+55 86 98141-3719,3.7,18,-5.0916296999999995,-42.8186794,maranhão
13,Ja Celulares Assistência Têcnica E Acessórios,,ChIJEyURb6o2jgcR7usjNp5Yoq0,"Avenida Deputado Ulisses Guimarães - Promorar, Teresina - PI, 64027-335",N/A,N/A,+55 86 99564-7566,5,2,-5.153263,-42.7888957,maranhão
14,Kassio-cel,,ChIJZUEtyAsxjgcRwrlu_dXcUiQ,"R. João Carneiro da Silva, Qd. 29 - Cs. 12 - Dirceu I, Teresina - PI, 64077-098",N/A,N/A,+55 86 99557-9007,4.4,17,-5.1042776,-42.7618389,maranhão
15,Fabrício Celulares,,ChIJgxYYQd44jgcR-uqHu-ibwww,"R. João Isidoro França, 523 - Poti Velho, Teresina - PI, 64008-010",N/A,N/A,+55 86 99954-1005,5,1,-5.0384741,-42.828253499999995,maranhão
17,"I CELL - Assistência Técnica de celulares e tablet, Água Mineral Teresina",https://instagram.com/i_cellphones?igshid=MTIyMzRjYmRlZg==,ChIJUcG7zBU5jgcReMGkBXttoXY,"Av. Duque de Caxias, 4940 - letra B - Água Mineral, Teresina - PI, 64006-245",N/A,N/A,+55 86 98866-1503,5,18,-5.0430863,-42.8092696,maranhão
18,Bolinha Celular,,ChIJFSkh56kzjgcRwYE9hZpPKFc,"Av. Ayrton Sena, 11 - Esplanada, Teresina - PI, 64039-480",N/A,N/A,+55 86 3219-2920,5,1,-5.1884324,-42.7526502,maranhão
19,"NOVATECH - Assistência Técnica de Celulares, tablets e notebooks",https://www.instagram.com/novatechteresina,ChIJFbP652c3jgcRnhBfBBxcbcQ,"R. Santa Luzia, 845 - Centro (Sul), Teresina - PI, 64001-400",N/A,N/A,+55 86 99422-7695,5,37,-5.0985894,-42.813953,maranhão
1,Eletrocell Celulares,,ChIJV4Sdtoc5jgcRJFCEio7wGZg,"R. Hugo Napoleão, 1046 - Jóquei, Teresina - PI, 64048-320",N/A,N/A,+55 86 98803-0605,3.5,2,-5.0665176999999995,-42.787685499999995,maranhão
2,Cellphone,,ChIJu_MfYAw3jgcRQ7AniYqS6DE,"Box 136 Térreo - Shopping da Cidade - Av. Maranhão, 1022 - Centro (Sul), Teresina - PI, 64000-010",N/A,N/A,+55 86 99464-1810,4.4,8,-5.0915006,-42.8191171,maranhão
3,Merita Celulares,,ChIJqV9Mx4Y7jgcRnWgOhFA95lc,"Av. Homero Castelo Branco, 615 - Jockey, Teresina - PI, 64048-385",N/A,N/A,+55 86 99469-2698,5,2,-5.0790064,-42.7809157,maranhão
6,Miguel Rosa Celulares,,ChIJt5xRTrg3jgcRz2hhmbtQ5DI,"Av. Miguel Rosa, 4457 - Nossa Sra. das Gracas, Teresina - PI, 64018-550",N/A,N/A,+55 86 99553-8500,,,-5.0983563,-42.8025891,maranhão
7,Pro Store Cell,,ChIJhY20458xjgcROkziN4O_l2I,"Quadra 60, casa 16 - Parque Piaui, Teresina - PI, 64025-210",N/A,N/A,+55 86 99822-1956,5,5,-5.1441247,-42.7887509,maranhão
8,JeFFh CeLL (assistência técnica e acessórios),,ChIJQeTpu2Y5jgcR8xpXrbbqk2s,"Av. Centenário, 2693 - Aeroporto, Teresina - PI, 64003-700",N/A,N/A,+55 86 99434-4196,4.3,7,-5.0567717,-42.822278999999995,maranhão
9,Carioca Celulares,,ChIJIbLTEHw3jgcRsfwU9tFmES4,"Shopping da Cidade - R. Areolino de Abreu, 300 - Térreo, Box 493 - Centro (Sul), Teresina - PI, 64000-180",N/A,N/A,,4.5,2,-5.091156,-42.819176,maranhão
11,Link Cell Celulares,,ChIJb4wuvNY2jgcRp11cJR70tEQ,"R. Quinze de Novembro, 1 - Quadra 14/ Bloco 03/ Apt 101 - Morada Nova, Teresina - PI, 64023-116",N/A,N/A,+55 86 98805-8160,4.6,5,-5.1246898,-42.7874183,maranhão
12,Rei da JBL - Assistência Técnica JBL e Iphone,https://wa.link/hcx3id,ChIJnUeBy8Q3jgcR-ySQUWpEZFE,"R. Rui Barbosa, 1250 - Centro (Sul), Teresina - PI, 64000-010",N/A,N/A,+55 86 99965-3833,4.9,116,-5.0821578999999995,-42.8206156,maranhão
15,Golden Cell,,ChIJU8L31yE4jgcRMxCjJMXc12k,"R. Cento e Sete, 415 - Parque Uniao, Timon - MA, 65631-384",N/A,N/A,+55 86 98806-1697,5,3,-5.0835663,-42.8437653,maranhão
16,Toinho - Capas Celular,,ChIJv2YjF3w3jgcRVRhtqVI1eh0,"Shop. da Cidade R. Areolino de Abreu, 300 - Térreo, Box 543, R. Areolino de Abreu, 300 - Térreo, Box 543 - Centro (Sul), Teresina - PI, 64000-180",N/A,N/A,+55 86 98855-0823,2.9,7,-5.0917466,-42.8186566,maranhão
17,Phone & Phone - Assistência Técnica Celular,,ChIJz0uUK74wjgcREIg5G8EkocM,"R. Gonçalo Nunes, 2082 - Beira Rio, Teresina - PI, 64075-500",N/A,N/A,+55 86 99595-1003,3.9,37,-5.1063386,-42.7700843,maranhão
18,Rael Acessórios e Variedades,,ChIJ16wctrM2jgcRXlFbVFhRiPs,"Av. Mal. Juarez Távora, 486 - Parque Piaui, Teresina - PI, 64025-196",N/A,N/A,+55 86 98889-2932,5,4,-5.1436418999999995,-42.7893529,maranhão
19,Restaura Phone - Conserto de Celulares Teresina,,ChIJladq2yA7jgcR5RcbqsiICYs,"Av Joao Antonio Leitão, 4461 Piçarreira 1, Teresina - PI, 64055-400",N/A,N/A,+55 86 99572-3794,5,46,-5.0647278,-42.7607363,maranhão
20,iPro Center Reparo e Manutenção de iPhone e Android,,ChIJAwWFdHw3jgcRjVDQIsUwZ54,"Av.Barroso, n - São Joaquim, Teresina - PI, 64004-100",N/A,N/A,+55 86 98840-9501,4.2,5,-5.0617412999999996,-42.8302413,maranhão
1,Vanilson Celular Assistência Técnica Especializada,,ChIJFzE1FD85jgcRxII5PsNYIag,"R. Prof. Édson Cunha, 4580 - Buenos Aires, Teresina - PI, 64008-570",N/A,N/A,,5,4,-5.0385184999999995,-42.8067071,maranhão
2,Procell Celular,,ChIJU09Cy48wjgcRXbpbAKiu2ks,"Quadra Dirceu Arcoverde I, Quadra 49, Casa - Itararé, Teresina - PI, 64077-210",N/A,N/A,+55 86 98837-1617,4.8,17,-5.1029979,-42.7555,maranhão
3,Thyaguim Acessórios,,ChIJv26V88sxjgcR0DStbMwyuYM,"Dirceu ll - Av. José Francisco de Almeida Neto, Quadra 172 - Casa 09 - Itararé, Teresina - PI, 64078-060",N/A,N/A,+55 86 99800-6050,5,1,-5.1052159,-42.758252299999995,maranhão
5,R.V CELL,,ChIJrfHWsv83jgcRxazPF0lKgXk,"Baixa Do Coco - R. 6 - Vila do Bec, Timon - MA, 65632-670",N/A,N/A,+55 86 99546-3997,5,3,-5.1393800999999995,-42.8331251,maranhão
6,A3 Imports,https://www.instagram.com/a.3.imports/,ChIJE_8znM4xjgcRgU-_mQBGRco,"Av. José Francisco de Almeida Neto, 10 - Galeria Center - Dirceu, Teresina - PI, 64078-070",N/A,N/A,+55 86 99495-1346,5,14,-5.1052121,-42.7577096,maranhão
7,Vip celular,,ChIJNZ8uN_o7jgcRsQzgNaiRMNs,"Rua Capitão Vanderley - Piçarreira, Teresina - PI, 64056-640",N/A,N/A,+55 86 99476-4906,4,4,-5.0634501,-42.7626,maranhão
11,MíDiAS CELL,,ChIJW6Cae24zjgcRoPMtTph86gI,"Av. Santa Me. Paulina, 3966 - vila irmâ dulce, Teresina - PI, 64040-605",N/A,N/A,+55 86 98103-1227,4.8,4,-5.192844,-42.767787,maranhão
12,Service Cell,,ChIJST8IpiY3jgcRzMi02aspYWs,"Av. Industrial Gil Martins, 1349 - Pio XII, Teresina - PI, 64019-630",N/A,N/A,+55 86 98884-2035,4.6,8,-5.117826,-42.800491799999996,maranhão
13,Fernando Cell,https://fernandocell.smallpage.com.br/,ChIJ0fk30tY3jgcRqKj3Dst-XQ4,"Shop. da Cidade - Corredor - R. Areolino de Abreu, 300 - Box 261, Térreo - Centro (Sul), Teresina - PI, 64000-180",N/A,N/A,+55 86 99992-7100,5,2,-5.0917466,-42.8186566,maranhão
14,G5Loja,https://blackg5loja.my.canva.site/,ChIJi5XujNAzjgcRuMoHgTOGzME,"RUA DELEGADO FELIX DIAS, Q. C2 (Cj P Alegre), CASA 1/1 - Esplanada, Teresina - PI, 64039-050",N/A,N/A,+55 86 98876-0748,5,2,-5.1900844,-42.756618499999995,maranhão
15,Marcelo Henrique - King Cell Assistência Técnica,https://instagram.com/marcellohenriqueking?utm_medium=copy_link,ChIJv91HeEo3jgcR5Ydp8gcybbE,"galeria center - Rua Barroso n° 56, Corredor, 2 - Box: 58 - Centro (Sul), Teresina - PI, 64001-130",N/A,N/A,+55 86 98813-6028,5,22,-5.092363799999999,-42.8137397,maranhão
16,FrancyCELL,,ChIJx2iQ4BA5jgcRWjdlsF-8N9k,"Av. Jerumenha, 4425 - Buenos Aires, Teresina - PI, 64008-300",N/A,N/A,+55 86 99808-1085,4.5,2,-5.0458948999999995,-42.8127916,maranhão
19,Concerto de celular tony cell,,ChIJf895JwBrjgcRxors4WWeuVg,"34Q2+34 - Timon, MA",N/A,N/A,+55 86 99593-1453,5,1,-4.9123019999999995,-42.899707,maranhão
20,Mendes Cell,,ChIJp-jJ4N8xjgcRBuIcRHmEk0Q,"Quadra 155 casa 10/5 Dirceu 2, Teresina - PI, 64078-016",N/A,N/A,+55 86 98864-8442,4.7,18,-5.1059215,-42.7658382,maranhão
17,LUCAS VENÇÃO ASSISTÊNCIA TÉCNICA E ACESSÓRIOS,,ChIJ4_K5pBg3jgcR1LYM-7QNCtQ,"Av. Regimento - Jóia, Timon - MA, 65633-000",N/A,N/A,+55 86 99489-2378,4.9,9,-5.1381898999999995,-42.8366743,maranhão
4,Santa Cruz Celulares the,,ChIJe_LiybM2jgcRhs340ZsSCNg,"bloco L - R. Mal. Hermes da Fonseca, box 05 - parque pi, Teresina - PI, 64022-080",N/A,N/A,+55 86 99855-0105,5,4,-5.1434378999999995,-42.7895903,maranhão
5,VipCell,,ChIJoXXF0qc3jgcR3qn9V--TlD0,"Q. Parque Piaui 18, 10 - Parque Piaui, Teresina - PI, 64025-060",N/A,N/A,+55 86 3220-1313,4.5,22,-5.140531999999999,-42.790588299999996,maranhão
8,Elshaday Tec Cel,,ChIJ98RojXk3jgcRd_hGPgTCab0,"Av. Mal. Juarez Távora - Parque Piaui, Teresina - PI, 64000-000",N/A,N/A,+55 86 98193-6332,4.9,10,-5.1441183,-42.791349,maranhão
13,Naldo Cell Variedades,,ChIJhTHvvO43jgcRhzfYKfR6Cyo,"Q. 31, 01 - Casa B - Promorar, Teresina - PI, 64027-080",N/A,N/A,+55 86 99866-7928,4,2,-5.151389,-42.7859328,maranhão
16,RPdoIphone,,ChIJ80G4Vck2jgcRaciAn3QJQsc,"Av. Prefeito Wall Ferraz, 8370 - Lourival Parente, Teresina - PI, 64022-145",N/A,N/A,+55 86 99830-1635,5,2,-5.1343106999999994,-42.7905131,maranhão
1,AJ IMPORTCELL,,ChIJgS6yksAxjgcRD6OnaMS03GA,"Av. Mal. Juarez Távora - Parque Piaui, Teresina - PI, 64025-520",N/A,N/A,+55 86 98190-9831,5,2,-5.1420292,-42.7828194,maranhão
6,Salva Cell,https://www.instagram.com/_salvacell?igsh=YTdscjBvZHgzNzg2,ChIJTR5wLAA3jgcR4ZUNUW_5DO8,"Q. Noventa e Três, 221 - Promorar, Teresina - PI, 64027-432",N/A,N/A,+55 86 99506-5215,5,1,-5.1516234999999995,-42.7864717,maranhão
8,Pronto Cell,,ChIJGZO9qPc2jgcRRhE0JXsZgWU,"Av. Gerônimo Silva, 100 - Parque Alvorada, Timon - MA, 65633-180",N/A,N/A,+55 86 98846-9575,4.5,8,-5.1287949,-42.8226144,maranhão
9,Jailtoncell,,ChIJf1UyWZIzjgcRpvh9nrt6MM0,"R. Francisco de Assis Garcia, 2259 - Angelim, Teresina - PI, 64040-530",N/A,N/A,+55 86 99414-5021,5,2,-5.1876622,-42.783312599999995,maranhão
10,Marcos Celulares,,ChIJi24iwTUxjgcRpbQ3WgVwO0I,"Av. Joaquim Nelson, 3167 - Dirceu 1, Teresina - PI, 64090-550",N/A,N/A,+55 86 99499-5817,2.3,3,-5.1019915,-42.7525753,maranhão
13,Felipe Rafael celular,https://instagram.com/felipe_rafael_celular?igshid=MzRlODBiNWFlZA==,ChIJk_xEYIQzjgcRZMm2RYxCCaU,"Av. Santa Me. Paulina, 4275 - Angelim, Teresina - PI, 64040-605",N/A,N/A,+55 86 99436-7473,5,5,-5.1919391,-42.7650376,maranhão
18,Samsung Experience Store,https://www.samsung.com/br/campaign/storecontacts/,ChIJLarCogA5jgcRKqsWfA4IPYo,"Av. Raul Lopes, 1000 - Noivos, Teresina - PI, 64046-902",N/A,N/A,+55 11 3230-3262,4.3,935,-5.0852574,-42.7900552,maranhão
19,Rodrigues Cell,http://www.instagram.com/rodriguescell,ChIJvzFjvMYwjgcRxIJYjQN0qM4,"Rua Monsenhor Zaul Pedreira, S/N Conjunto Residencial Fortes, Q. A, Casa 29 - Comprida, Teresina - PI, 64076-115",N/A,N/A,,4.9,225,-5.1145944,-42.7630353,maranhão
10,JS Acessórios,,ChIJn4LHvapJjgcRYp3RLWAt1I8,"R. Peritoró, 11 - Bela Vista, Timon - MA",N/A,N/A,+55 86 99921-3276,,,-5.1003444,-42.869954,maranhão
2,GIL CELL,,ChIJDyhsd-E3jgcR86CL4pYmc2o,"Av. Luís Firmino de Sousa - São Benedito, Timon - MA, 65635-822",N/A,N/A,+55 86 99433-6605,5,1,-5.104146399999999,-42.838527299999996,maranhão
9,Assistência Técnica Levy “s cell e Acessorios,https://www.instagram.com/assistencia_levycell_/,ChIJTTzXGVo3jgcRZaqZ-PnKCBI,"R. João Pereira de Macedo, 1537 - Parque Alvorada, Timon - MA, 65633-410",N/A,N/A,+55 86 99535-8957,5,1,-5.1322471,-42.8367783,maranhão
13,Jó Celulares,,ChIJ4XTDVR43jgcRQaVyAQXm9FA,"R. Filomena Martins Nazareno Bringel - Parque Piauí II, Timon - MA, 65631-280",N/A,N/A,+55 99 98535-4019,,,-5.0980605,-42.8487959,maranhão
15,TS cell,http://www.facebook.com/tscell/?ref=bookmarks,ChIJc6Mwu5k3jgcREHdHWQ8e6AY,"R. Formosa, 640 - Formosa, Timon - MA, 65636-220",N/A,N/A,+55 99 98115-9764,2,1,-5.107566299999999,-42.8333012,maranhão
16,Julio cell & acessórios,,ChIJ9R867XU3jgcR_d3eTk-jQdk,"Av. Teresina, 900 - Parque Piaui, Timon - MA, 65631-205",N/A,N/A,+55 86 98838-4181,5,3,-5.0944834,-42.8370505,maranhão
19,Maguim Cell,https://www.instagram.com/maguimcellthe/?hl=pt-br,ChIJ9XlSc3w3jgcRBeHTNeldTtM,"Shopping da Cidade - R. Areolino de Abreu, 300 - Terreo, Box 262, 263 - Centro (Sul), Teresina - PI, 64000-180",N/A,N/A,+55 86 99978-4270,4.3,67,-5.0910413,-42.819074,maranhão
16,Thcell Prime,,ChIJ-f9LND83jgcRS9515J0P_UQ,"Av. Maranhão, 300 - Box 67 - Térreo - Centro (Sul), Teresina - PI, 64000-010",N/A,N/A,+55 86 99489-8872,5,10,-5.0915849,-42.8188044,maranhão
18,Solução Celulares,,ChIJ2S9sC3w3jgcRKpO_p5-KMDs,"Shopping da Cidade, Av. Maranhão, box 22,23,37 - Centro (Sul), Teresina - PI, 64004-000",N/A,N/A,+55 86 99483-9472,4.8,9,-5.0916722,-42.8190082,maranhão
15,Enzo Smartphone Assistência Técnica,,ChIJr0tdl7c3jgcRmgh6sNyzPYg,"Av. Pedro Freitas, 2636 - Vermelha, Teresina - PI, 64018-000",N/A,N/A,+55 86 99477-1735,4.5,6,-5.1167205,-42.8112032,maranhão
17,Atacadão Tok Cell,,ChIJMcn0Fnw3jgcRrEHfLRI5bJ8,"Shopping da Cidade - R. Areolino de Abreu, 300 - 1º Piso - Box 507 e 508 - Centro (Sul), Teresina - PI, 64000-180",N/A,N/A,+55 86 3236-3160,4,60,-5.0908919,-42.8190441,maranhão
20,A2i Assistência e Acessórios,https://www.instagram.com/a2i_assist,ChIJTfw52QY3jgcRFyIHIRmv4DY,"Av. Dr. Luis Pires Castro, 24 Quadra 68 - Saci, Teresina - PI, 64020-380",N/A,N/A,+55 86 98153-6391,5,8,-5.137866799999999,-42.8042309,maranhão
8,ZTECH : Assistência e Acessórios,,ChIJgXplUWg5jgcRYpEuGwlgvr8,"Av. Jerumenha, 5536 - Buenos Aires, Teresina - PI, 64008-300",N/A,N/A,,2.7,3,-5.0369399999999995,-42.8168327,maranhão
18,Mano cell -Soluções Técnico em Smartphones,https://instagram.com/mano_cell_solucoes?igshid=tgtjc1mvcqyx,ChIJtYRgqJI5jgcRW_7r8nq6xNE,"Rua Canindé Qd 1 casa 17 Conjunto - São Joaquim, Teresina - PI, 64004-215",N/A,N/A,+55 86 99853-1311,4.8,20,-5.0580603,-42.832313299999996,maranhão
3,Casa da Película,https://casadapelicula-electronicsstore.negocio.site/?utm_source=gmb&utm_medium=referral,ChIJq5QKDTE3jgcR2QAfvO8GC4w,"Av. Teresina, n° 778 - Parque Piaui, Timon - MA, 65636-500",N/A,N/A,+55 86 99586-6653,5,21,-5.094070299999999,-42.8361975,maranhão
14,Alphacase,http://instagram.com/alphacase.oficial,ChIJ-Z8-a2M3jgcR6jD0hSymAU8,"Rua Treze de Maio, 35 - Centro (Sul), Teresina - PI, 64000-150",N/A,N/A,+55 86 99961-4245,4.6,84,-5.0914250999999995,-42.8136268,maranhão
19,SM CAPAS,,ChIJowghl303jgcRKW6rEdKYpjw,"R. Firmino Pires, 532 A - Centro (Sul), Teresina - PI, 64000-070",N/A,N/A,+55 86 99921-0190,4.2,29,-5.0886699,-42.8182104,maranhão
20,Ebenézer Cell,https://instagram.com/ebenezer_cellu?utm_medium=copy_link,ChIJB-tkkKE3jgcRVm7zLGa2-Bk,"Av. Pres. Médici, 1858 - Parque Piaui, Timon - MA, 65631-391",N/A,N/A,+55 86 98811-7477,5,2,-5.104408299999999,-42.8289279,maranhão
7,JP CELL,,ChIJ3X8Yd1E4jgcR8eckuN1xdkA,"R. Rui Barbosa, 3820 - Matadouro, Teresina - PI, 64001-090",N/A,N/A,,,,-5.0610735,-42.8303976,maranhão
14,Inove Celular João Marcelo “Revenda TIM”,,ChIJAbG41K05jgcRU8wPBHRcAkA,"Av. Centenário, 1515 - Aeroporto, Teresina - PI, 64006-700",N/A,N/A,+55 86 98811-7590,4.5,72,-5.0665514,-42.818419999999996,maranhão
15,Davi Cell,,ChIJ2R5KBJo5jgcReqa_TLpLCeM,"Conj. Sao Joaquim Qu, 2, 1 - São Joaquim, Teresina - PI, 64004-215",N/A,N/A,,4.3,7,-5.058635499999999,-42.831191499999996,maranhão
18,Miguel celulares e eletrônicos,,ChIJ4WEp3Us5jgcRFo5UKrKfg7Y,"R. Rui Barbosa, 3912 - São Joaquim, Teresina - PI, 64005-355",N/A,N/A,+55 86 98853-9899,4.9,7,-5.0591968,-42.830840699999996,maranhão
1,L&D Acessórios para celular,,ChIJb_ycQvVJLpMRyniVNNDTXjw,"R. 3 - Lizarda, TO, 77630-000",N/A,N/A,+55 63 99137-9915,,,-9.602181999999999,-46.6803837,maranhão
2,Click cell acessorios p celular e eletronicos,,ChIJ04wtffHrMpMR0MtsBf4-HWg,"rua boa vista prox.posto de combustivel, São Gonçalo do Gurguéia - PI",N/A,N/A,+55 89 98109-4686,5,2,-10.030711799999999,-45.3035955,maranhão
3,Amigo Celular,http://www.instagram.com/amigocelular1_,ChIJ4at47PY5M5MRK7_wludvizo,"R. Des. Amaral, 2050 - Centro, Corrente - PI, 64980-000",N/A,N/A,+55 89 99939-4937,4.8,59,-10.4428261,-45.1621393,maranhão
4,GSR CELULARES,https://www.instagram.com/gsrcelulares/,ChIJnaUlIMY5M5MRThAtczeOZ6I,"R. do Ipiranga, Corrente - PI, 64980-000",N/A,N/A,+55 89 99986-3756,5,16,-10.4411008,-45.161771599999994,maranhão
5,Alô Celular,,ChIJbR6_KvQ5M5MRJnwP_pfnhe8,"R. Des. Amaral, 1850, Corrente - PI, 64980-000",N/A,N/A,+55 89 99450-8090,4.1,23,-10.4422389,-45.163550699999995,maranhão
6,Gold Celulares,,ChIJVUxIh_Y5M5MRgHJAkKlrL80,"R. Des. Amaral, 1867, Corrente - PI, 64980-000",N/A,N/A,+55 38 99116-9187,2.6,5,-10.4421766,-45.163165899999996,maranhão
7,SUPER CELL celulares e acessórios,https://instagram.com/supercellgilbues?igshid=dmlfjvfporkc,ChIJ3Y4i5mGZMpMRxTo_D4PSPLo,"R. Geraldino Gabriel - Centro, Gilbués - PI, 64930-000",N/A,N/A,+55 89 98110-8426,4.5,2,-9.8304113,-45.341472499999995,maranhão
8,Amigo Celular LTDA,https://instagram.com/amigocelular1_?igshid=YTQwZjQ0NmI0OA==,ChIJk3KpRIy4NJMRDhEcRWMptkE,"R. Percílio Santana, 73, Formosa do Rio Preto - BA, 47990-000",N/A,N/A,+55 77 99836-3230,5,30,-11.048146899999999,-45.1930453,maranhão
9,Universal Celulares,https://www.instagram.com/universalcelulares_/,ChIJQ0XfPo3_NpMRzQ31QzES9ZQ,"Praça Francisco Liberato Póvoa, 49, Dianópolis - TO, 77300-000",N/A,N/A,+55 63 99123-3806,5,1,-11.6272687,-46.8207248,maranhão
10,Mathisa Celulares e Acessórios,https://lojamathisa.com.br/,ChIJ9_UHAQj_NpMRvM1dbwtJpkI,"Rua Coquelin Aires, 135A - Centro, Dianópolis - TO, 77300-000",N/A,N/A,+55 63 98111-6084,5,41,-11.626057399999999,-46.8194002,maranhão
11,MI CLICK CELULARES,,ChIJ319Eue0xO5MRC1Qk78n6PwI,"Avenida Tocantins, QD 06A Lote 01, Sala 02, Palmas - TO, 77064-580",N/A,N/A,+55 63 99230-2386,4.7,23,-10.3297002,-48.2973746,maranhão
12,Flash Celular,https://www.facebook.com/flashcelular.celular?fref=ts,ChIJ88a2XFvLJJMRhzeAiYD2d_g,"104 Sul Se 05 Conjunto 04 Número 3 - 104 Sul, Palmas - TO, 77020-018",N/A,N/A,+55 63 99239-1990,4.6,64,-10.1874256,-48.3290672,maranhão
13,Fast Celular,,ChIJSelEmCDLJJMRHcvEAIV3qPo,"Av. Juscelino Kubitscheck, 129 - Sala 09/10 - 104 Norte, Palmas - TO, 77006-014",N/A,N/A,+55 63 3026-6772,3.9,33,-10.1841417,-48.3289238,maranhão
14,MAIS PHONE | Assistência Técnica de Celulares,https://www.instagram.com/maisphone63/,ChIJ0-z4JejLJJMR_LCK62OuhYA,"104 Sul, Av. NS 2, Lote 02 - Plano Diretor Sul, Palmas - TO, 77020-030",N/A,N/A,+55 63 3225-7157,4.9,137,-10.186785,-48.3298907,maranhão
15,Mastercell Celulares & Assistência,,ChIJrcUn4MMwO5MRQh00BAPOTJ8,"Av. Tocantins, Quadra 15, Lt-3, Sala 03 - St. Bela Vista (Taquaralto), Palmas - TO, 77064-002",N/A,N/A,+55 63 99291-0762,4.7,21,-10.3308897,-48.2969724,maranhão
16,GLOBO CELULAR,https://www.instagram.com/globo.celular/,ChIJtfhVtUcxO5MRFwG9BaCjmAs,"Av. Tocantins QD 38 LT 23 SL 01 - Taquaralto, Palmas - TO, 77064-580",N/A,N/A,+55 63 3571-9249,4.3,9,-10.335478799999999,-48.2957032,maranhão
17,Casa do Celular,,ChIJDeSX-54wO5MRt0-fAFDcEds,"Centro (Taquaralto), Palmas - TO, 77064-580",N/A,N/A,+55 63 99133-1293,2.8,4,-10.3344782,-48.2962195,maranhão
18,Tok Smart Celulares e Assistência,,ChIJpVjH5izLJJMR5tgeyjuk5Ao,"R. SE-07, 05 - Lote 21 Sala 09 - Plano Diretor Sul, Palmas - TO, 77020-018",N/A,N/A,+55 63 3322-8555,4.8,25,-10.1872264,-48.3278514,maranhão
19,PA TECH eletrônicos. loja de celular iPhone xiaomi JBL,https://linktr.ee/p.a.tech,ChIJe5Z2Vig1O5MRhE3ZTcX3E94,"Plano Diretor Sul, Palmas - TO, 77023-110",N/A,N/A,+55 63 99276-9179,5,51,-10.2350558,-48.3219917,maranhão
20,check-up celular,https://bit.ly/checkupcelularpalmas20,ChIJR6YN_Kc1O5MRme1lXurbxnE,"Q. 604 Sul Alameda 5, LO 15, Nº 13 sala 2 - Plano Diretor Sul, Palmas - TO, 77022-018",N/A,N/A,+55 63 99242-9720,5,2,-10.2235484,-48.3271459,maranhão
1,Notecel Miracema,https://notecel.tech/,ChIJUzEekORnJJMRmkFUjdXXWoY,"Praça Mãe Domingas, N 690 - St. Flamboyant II, Miracema do Tocantins - TO, 77650-000",N/A,N/A,+55 63 99983-1856,3.8,6,-9.5633916,-48.408236599999995,maranhão
2,Amaral celulares,,ChIJc5BNlXu1JJMRtNXY1n_DSzc,"Av.A quadra 8 lote 16 jardim europa luzimangues Luzimargues, Porto Nacional - TO, 77550-000",N/A,N/A,+55 63 98405-3997,5,2,-10.1903872,-48.4585358,maranhão
3,Rodo Cel,,ChIJ8_ojEQo0O5MROngui6jJY0A,"Q. 1206 Sul Alameda 24 - Plano Diretor Sul, Palmas - TO, 77024-488",N/A,N/A,,5,1,-10.2558426,-48.319901699999996,maranhão
4,Conect celulares,,ChIJ_-UCZ4c1O5MR-BwAnW-o2-A,"Q. 1206 Sul Alameda 2, 06 - Arse, Palmas - TO, 77024-467",N/A,N/A,+55 63 99273-5743,4.7,14,-10.2558192,-48.3229914,maranhão
5,Loja TIM Palmas,https://wa.me/5563984010001,ChIJtftf5fzLJJMRm96YfXvO_zY,"Q. 104 Sul Rua SE 1, Conjunto 02, Lote 06 - Plano Diretor Sul, Palmas - TO, 77020-014",N/A,N/A,+55 63 98401-0001,3.9,34,-10.185757899999999,-48.3295817,maranhão
6,Drive Cell acessórios,,ChIJ9Sr42oI1O5MRNiexmlNRe4Q,"1106 sul Av. LO 27 Estacionamento da farmácia biocida, Q. 1106 Sul Alameda 2, Palmas - TO, 77024-054",N/A,N/A,+55 63 98403-4851,5,2,-10.255149099999999,-48.321019299999996,maranhão
7,AutoCell,https://www.instagram.com/autocelloficial/?hl=pt-br,ChIJbSmBNoDMJJMRYFXAny32fOo,"Av. LO-01, 23 - Sala 5 - 104 Sul, Palmas - TO, 77020-020",N/A,N/A,+55 63 99204-3092,4,50,-10.1879356,-48.3276806,maranhão
